{
  "bahrain": [
    {
      "name": "Manama",
      "lat": 26.2285,
      "lon": 50.586,
      "pop": 411000,
      "elevation_m": 6
    },
    {
      "name": "Riffa",
      "lat": 26.13,
      "lon": 50.575,
      "pop": 195000,
      "elevation_m": 44
    },
    {
      "name": "Hamad Town",
      "lat": 26.1153,
      "lon": 50.5248,
      "pop": 133000,
      "elevation_m": 29
    },
    {
      "name": "Budaiya",
      "lat": 26.2167,
      "lon": 50.47,
      "pop": 45000,
      "elevation_m": 4
    },
    {
      "name": "Zallaq",
      "lat": 26.0367,
      "lon": 50.5033,
      "pop": 15000,
      "elevation_m": 2
    }
  ],
  "austria": [
    {
      "name": "Vienna",
      "lat": 48.2082,
      "lon": 16.3738,
      "pop": 1897000,
      "elevation_m": 170
    },
    {
      "name": "Graz",
      "lat": 47.0707,
      "lon": 15.4395,
      "pop": 286000,
      "elevation_m": 363
    },
    {
      "name": "Linz",
      "lat": 48.3069,
      "lon": 14.2858,
      "pop": 204000,
      "elevation_m": 250
    },
    {
      "name": "Salzburg",
      "lat": 47.8095,
      "lon": 13.055,
      "pop": 153000,
      "elevation_m": 430
    },
    {
      "name": "Innsbruck",
      "lat": 47.2692,
      "lon": 11.4041,
      "pop": 132000,
      "elevation_m": 580
    },
    {
      "name": "Klagenfurt",
      "lat": 46.6247,
      "lon": 14.3053,
      "pop": 101000,
      "elevation_m": 451
    },
    {
      "name": "Villach",
      "lat": 46.6111,
      "lon": 13.8558,
      "pop": 61000,
      "elevation_m": 497
    },
    {
      "name": "Dornbirn",
      "lat": 47.4125,
      "lon": 9.7417,
      "pop": 49000,
      "elevation_m": 445
    }
  ],
  "türkiye": [
    {
      "name": "Istanbul",
      "lat": 41.0082,
      "lon": 28.9784,
      "pop": 15462000,
      "elevation_m": 36
    },
    {
      "name": "Ankara",
      "lat": 39.9334,
      "lon": 32.8597,
      "pop": 5663000,
      "elevation_m": 938
    },
    {
      "name": "Izmir",
      "lat": 38.4237,
      "lon": 27.1428,
      "pop": 4394000,
      "elevation_m": 8
    },
    {
      "name": "Bursa",
      "lat": 40.1833,
      "lon": 29.0667,
      "pop": 3101000,
      "elevation_m": 234
    },
    {
      "name": "Antalya",
      "lat": 36.8969,
      "lon": 30.7133,
      "pop": 2548000,
      "elevation_m": 53
    },
    {
      "name": "Konya",
      "lat": 37.8714,
      "lon": 32.4847,
      "pop": 2232000,
      "elevation_m": 1029
    },
    {
      "name": "Adana",
      "lat": 36.9914,
      "lon": 35.3308,
      "pop": 2258000,
      "elevation_m": 29
    },
    {
      "name": "Mersin",
      "lat": 36.8121,
      "lon": 34.6415,
      "pop": 1868000,
      "elevation_m": 14
    },
    {
      "name": "Diyarbakır",
      "lat": 37.9144,
      "lon": 40.211,
      "pop": 1783000,
      "elevation_m": 688
    },
    {
      "name": "Erzurum",
      "lat": 39.9043,
      "lon": 41.2679,
      "pop": 762000,
      "elevation_m": 1897
    },
    {
      "name": "Van",
      "lat": 38.4945,
      "lon": 43.38,
      "pop": 529000,
      "elevation_m": 1706
    },
    {
      "name": "Trabzon",
      "lat": 41.0027,
      "lon": 39.7168,
      "pop": 807000,
      "elevation_m": 39
    }
  ],
  "spain": [
    {
      "name": "Madrid",
      "lat": 40.4168,
      "lon": -3.7038,
      "pop": 3223000,
      "elevation_m": 667
    },
    { "name": "Córdoba", "lat": 37.8882, "lon": -4.7790, "pop": 325701, "elevation_m": 120 },
    {
      "name": "Barcelona",
      "lat": 41.3851,
      "lon": 2.1734,
      "pop": 1620000,
      "elevation_m": 28
    },
    {
      "name": "Valencia",
      "lat": 39.4699,
      "lon": -0.3763,
      "pop": 791000,
      "elevation_m": 17
    },
    {
      "name": "Seville",
      "lat": 37.3891,
      "lon": -5.9845,
      "pop": 688000,
      "elevation_m": 18
    },
    {
      "name": "Zaragoza",
      "lat": 41.6488,
      "lon": -0.8891,
      "pop": 674000,
      "elevation_m": 228
    },
    {
      "name": "Málaga",
      "lat": 36.7213,
      "lon": -4.4214,
      "pop": 578000,
      "elevation_m": 22
    },
    {
      "name": "Murcia",
      "lat": 37.9922,
      "lon": -1.1307,
      "pop": 453000,
      "elevation_m": 41
    },
    {
      "name": "Palma",
      "lat": 39.5696,
      "lon": 2.6502,
      "pop": 416000,
      "elevation_m": 32
    },
    {
      "name": "Las Palmas",
      "lat": 28.1235,
      "lon": -15.4363,
      "pop": 379000,
      "elevation_m": 62
    },
    {
      "name": "Bilbao",
      "lat": 43.263,
      "lon": -2.935,
      "pop": 345000,
      "elevation_m": 24
    },
    {
      "name": "A Coruña",
      "lat": 43.3623,
      "lon": -8.4115,
      "pop": 245000,
      "elevation_m": 59
    },
    {
      "name": "Valladolid",
      "lat": 41.6523,
      "lon": -4.7245,
      "pop": 298000,
      "elevation_m": 698
    }
  ],
  "andorra": [
    {
      "name": "Andorra la Vella",
      "lat": 42.5063,
      "lon": 1.5218,
      "pop": 22884,
      "elevation_m": 1023
    },
    {
      "name": "Ordino",
      "lat": 42.5562,
      "lon": 1.5332,
      "pop": 5069,
      "elevation_m": 1298
    },
    {
      "name": "Encamp",
      "lat": 42.5361,
      "lon": 1.5828,
      "pop": 12041,
      "elevation_m": 1238
    },
    {
      "name": "Sant Julià de Lòria",
      "lat": 42.4637,
      "lon": 1.4913,
      "pop": 9694,
      "elevation_m": 908
    },
    {
      "name": "El Serrat",
      "lat": 42.6186,
      "lon": 1.5381,
      "pop": 200,
      "elevation_m": 1540
    }
  ],
  "canary_islands": [
    {
      "name": "Las Palmas",
      "lat": 28.1235,
      "lon": -15.4363,
      "pop": 379000,
      "elevation_m": 62
    }
  ],
  "germany": [
    {
      "name": "Berlin",
      "lat": 52.52,
      "lon": 13.405,
      "pop": 3664000,
      "elevation_m": 34
    },
    {
      "name": "Hamburg",
      "lat": 53.5511,
      "lon": 9.9937,
      "pop": 1841000,
      "elevation_m": 3
    },
    {
      "name": "Munich",
      "lat": 48.1351,
      "lon": 11.582,
      "pop": 1472000,
      "elevation_m": 521
    },
    {
      "name": "Cologne",
      "lat": 50.9375,
      "lon": 6.9603,
      "pop": 1086000,
      "elevation_m": 55
    },
    {
      "name": "Frankfurt",
      "lat": 50.1109,
      "lon": 8.6821,
      "pop": 753000,
      "elevation_m": 103
    },
    {
      "name": "Stuttgart",
      "lat": 48.7758,
      "lon": 9.1829,
      "pop": 635000,
      "elevation_m": 249
    },
    {
      "name": "Düsseldorf",
      "lat": 51.2277,
      "lon": 6.7735,
      "pop": 619000,
      "elevation_m": 42
    },
    {
      "name": "Leipzig",
      "lat": 51.3397,
      "lon": 12.3731,
      "pop": 588000,
      "elevation_m": 115
    },
    {
      "name": "Dortmund",
      "lat": 51.5136,
      "lon": 7.4653,
      "pop": 587000,
      "elevation_m": 103
    },
    {
      "name": "Essen",
      "lat": 51.4556,
      "lon": 7.0116,
      "pop": 583000,
      "elevation_m": 88
    },
    {
      "name": "Dresden",
      "lat": 51.0504,
      "lon": 13.7373,
      "pop": 556000,
      "elevation_m": 115
    },
    {
      "name": "Hanover",
      "lat": 52.3759,
      "lon": 9.732,
      "pop": 536000,
      "elevation_m": 60
    },
    {
      "name": "Nuremberg",
      "lat": 49.4521,
      "lon": 11.0767,
      "pop": 518000,
      "elevation_m": 308
    },
    {
      "name": "Bremen",
      "lat": 53.0793,
      "lon": 8.8017,
      "pop": 567000,
      "elevation_m": 11
    },
    {
      "name": "Münster",
      "lat": 51.9607,
      "lon": 7.6261,
      "pop": 316000,
      "elevation_m": 60
    },
    {
      "name": "Kiel",
      "lat": 54.3233,
      "lon": 10.1228,
      "pop": 247000,
      "elevation_m": 5
    },
    {
      "name": "Rostock",
      "lat": 54.0924,
      "lon": 12.0991,
      "pop": 209000,
      "elevation_m": 13
    },
    {
      "name": "Osnabrück",
      "lat": 52.2799,
      "lon": 8.0472,
      "pop": 166000,
      "elevation_m": 63
    },
    {
      "name": "Erfurt",
      "lat": 50.9848,
      "lon": 11.0299,
      "pop": 214000,
      "elevation_m": 194
    },
    {
      "name": "Mannheim",
      "lat": 49.4875,
      "lon": 8.466,
      "pop": 310000,
      "elevation_m": 97
    },
    {
      "name": "Karlsruhe",
      "lat": 49.0069,
      "lon": 8.4037,
      "pop": 308000,
      "elevation_m": 115
    },
    {
      "name": "Freiburg",
      "lat": 47.999,
      "lon": 7.8421,
      "pop": 231000,
      "elevation_m": 278
    },
    {
      "name": "Saarbrücken",
      "lat": 49.2402,
      "lon": 6.9969,
      "pop": 180000,
      "elevation_m": 230
    },
    {
      "name": "Passau",
      "lat": 48.5667,
      "lon": 13.4319,
      "pop": 53000,
      "elevation_m": 313
    }
  ],
  "switzerland": [
    {
      "name": "Zurich",
      "lat": 47.3769,
      "lon": 8.5417,
      "pop": 415000,
      "elevation_m": 409
    },
    {
      "name": "Geneva",
      "lat": 46.2044,
      "lon": 6.1432,
      "pop": 201000,
      "elevation_m": 368
    },
    {
      "name": "Basel",
      "lat": 47.5596,
      "lon": 7.5886,
      "pop": 177000,
      "elevation_m": 247
    },
    {
      "name": "Lausanne",
      "lat": 46.5197,
      "lon": 6.6323,
      "pop": 139000,
      "elevation_m": 500
    },
    {
      "name": "Bern",
      "lat": 46.948,
      "lon": 7.4474,
      "pop": 133000,
      "elevation_m": 542
    },
    {
      "name": "Lucerne",
      "lat": 47.0502,
      "lon": 8.3093,
      "pop": 81000,
      "elevation_m": 437
    },
    {
      "name": "St. Gallen",
      "lat": 47.4239,
      "lon": 9.3747,
      "pop": 75000,
      "elevation_m": 679
    },
    {
      "name": "Lugano",
      "lat": 46.0037,
      "lon": 8.9511,
      "pop": 63000,
      "elevation_m": 286
    },
    {
      "name": "Konstanz",
      "lat": 47.66033,
      "lon": 9.17582,
      "pop": 81275
    },
    {
      "name": "La Chaux-de-Fonds",
      "lat": 47.09993,
      "lon": 6.82586,
      "pop": 37942
    },
    {
      "name": "Zermatt",
      "lat": 46.0207,
      "lon": 7.7491,
      "pop": 5769,
      "elevation_m": 1620
    }
  ],
  "italy": [
    {
      "name": "Rome",
      "lat": 41.9028,
      "lon": 12.4964,
      "pop": 2873000,
      "elevation_m": 14
    },
    {
      "name": "Milan",
      "lat": 45.4642,
      "lon": 9.19,
      "pop": 1352000,
      "elevation_m": 147
    },
    {
      "name": "Naples",
      "lat": 40.8518,
      "lon": 14.2681,
      "pop": 962000,
      "elevation_m": 19
    },
    {
      "name": "Turin",
      "lat": 45.0703,
      "lon": 7.6869,
      "pop": 883000,
      "elevation_m": 239
    },
    {
      "name": "Palermo",
      "lat": 38.1157,
      "lon": 13.3615,
      "pop": 673000,
      "elevation_m": 32
    },
    {
      "name": "Genoa",
      "lat": 44.4056,
      "lon": 8.9463,
      "pop": 583000,
      "elevation_m": 11
    },
    {
      "name": "Florence",
      "lat": 43.7696,
      "lon": 11.2558,
      "pop": 382000,
      "elevation_m": 65
    },
    {
      "name": "Bari",
      "lat": 41.1171,
      "lon": 16.8719,
      "pop": 324000,
      "elevation_m": 9
    },
    {
      "name": "Catania",
      "lat": 37.5079,
      "lon": 15.083,
      "pop": 311000,
      "elevation_m": 42
    },
    {
      "name": "Venice",
      "lat": 45.4408,
      "lon": 12.3155,
      "pop": 261000,
      "elevation_m": 3
    }
  ],
  "ivory_coast": [
    {
      "name": "Abidjan",
      "lat": 5.36,
      "lon": -4.0083,
      "pop": 5616000
    },
    {
      "name": "Bouaké",
      "lat": 7.6939,
      "lon": -5.0306,
      "pop": 832000
    },
    {
      "name": "Daloa",
      "lat": 6.8774,
      "lon": -6.4502,
      "pop": 319400
    },
    {
      "name": "Korhogo",
      "lat": 9.458,
      "lon": -5.6295,
      "pop": 286100
    },
    {
      "name": "Yamoussoukro",
      "lat": 6.8206,
      "lon": -5.2764,
      "pop": 355000,
      "elevation_m": 217
    },
    {
      "name": "San-Pédro",
      "lat": 4.7392,
      "lon": -6.6361,
      "pop": 306900
    },
    {
      "name": "Man",
      "lat": 7.4125,
      "lon": -7.5536,
      "pop": 217800
    },
    {
      "name": "Gagnoa",
      "lat": 6.1319,
      "lon": -5.9506,
      "pop": 219200
    },
    {
      "name": "Divo",
      "lat": 5.8372,
      "lon": -5.3572,
      "pop": 178100
    },
    {
      "name": "Abengourou",
      "lat": 6.7297,
      "lon": -3.4964,
      "pop": 136700
    }
  ],
  "france": [
    {
      "name": "Paris",
      "lat": 48.8566,
      "lon": 2.3522,
      "elevation_m": 34
    },
    {
      "name": "Marseille",
      "lat": 43.2965,
      "lon": 5.3698,
      "elevation_m": 6
    },
    {
      "name": "Lyon",
      "lat": 45.764,
      "lon": 4.8357,
      "elevation_m": 184
    },
    {
      "name": "Toulouse",
      "lat": 43.6047,
      "lon": 1.4442,
      "elevation_m": 153
    },
    {
      "name": "Nantes",
      "lat": 47.2184,
      "lon": -1.5536,
      "elevation_m": 19
    },
    {
      "name": "Strasbourg",
      "lat": 48.5734,
      "lon": 7.7521,
      "elevation_m": 142
    },
    {
      "name": "Bordeaux",
      "lat": 44.8378,
      "lon": -0.5792,
      "elevation_m": 16
    },
    {
      "name": "Lille",
      "lat": 50.6292,
      "lon": 3.0573,
      "elevation_m": 27
    },
    {
      "name": "Grenoble",
      "lat": 45.1885,
      "lon": 5.7245,
      "elevation_m": 212
    },
    {
      "name": "Brest",
      "lat": 48.3904,
      "lon": -4.4861,
      "elevation_m": 34
    },
    {
      "name": "Orléans",
      "lat": 47.903,
      "lon": 1.9083,
      "elevation_m": 116
    },
    {
      "name": "Ajaccio",
      "lat": 41.9267,
      "lon": 8.7369,
      "elevation_m": 38
    },
    {
      "name": "Mont-Dore",
      "lat": 45.5739,
      "lon": 2.8092,
      "elevation_m": 1050
    }
  ],
  "india": [
    {
      "name": "Mumbai",
      "lat": 19.076,
      "lon": 72.8777,
      "pop": 12442000,
      "elevation_m": 6
    },
    {
      "name": "New Delhi",
      "lat": 28.6139,
      "lon": 77.209,
      "pop": 11034000,
      "elevation_m": 220
    },
    {
      "name": "Bengaluru",
      "lat": 12.9716,
      "lon": 77.5946,
      "pop": 8443000,
      "elevation_m": 910
    },
    {
      "name": "Hyderabad",
      "lat": 17.385,
      "lon": 78.4867,
      "pop": 6731000,
      "elevation_m": 505
    },
    {
      "name": "Ahmedabad",
      "lat": 23.0225,
      "lon": 72.5714,
      "pop": 5577000,
      "elevation_m": 53
    },
    {
      "name": "Chennai",
      "lat": 13.0827,
      "lon": 80.2707,
      "pop": 4646000,
      "elevation_m": 12
    },
    {
      "name": "Kolkata",
      "lat": 22.5726,
      "lon": 88.3639,
      "pop": 4496000,
      "elevation_m": 12
    },
    {
      "name": "Imphal",
      "lat": 24.8170,
      "lon": 93.9368,
      "pop": 630000,
      "elevation_m": 786
    },
    {
      "name": "Srinagar",
      "lat": 34.0837,
      "lon": 74.7973,
      "pop": 1800000,
      "elevation_m": 1585
    },
    {
      "name": "Nagpur",
      "lat": 21.1458,
      "lon": 79.0882,
      "pop": 2893000,
      "elevation_m": 310
    }
  ],
  "south korea": [
    {
      "name": "Seoul",
      "lat": 37.57,
      "lon": 126.98,
      "pop": 9670000,
      "elevation_m": 33
    },
    {
      "name": "Busan",
      "lat": 35.1796,
      "lon": 129.0756,
      "pop": 3350000,
      "elevation_m": 26
    },
    {
      "name": "Daegu",
      "lat": 35.8714,
      "lon": 128.6014,
      "pop": 2390000,
      "elevation_m": 45
    },
    {
      "name": "Daejeon",
      "lat": 36.3504,
      "lon": 127.3845,
      "pop": 1450000,
      "elevation_m": 59
    },
    {
      "name": "Gwangju",
      "lat": 35.1595,
      "lon": 126.8526,
      "pop": 1420000,
      "elevation_m": 28
    },
    {
      "name": "Chuncheon",
      "lat": 37.8813,
      "lon": 127.7298,
      "pop": 2860000,
      "elevation_m": 79
    },
    {
      "name": "Jecheon",
      "lat": 37.1325,
      "lon": 128.1911,
      "pop": 131000,
      "elevation_m": 265
    },
    {
      "name": "Gangneung",
      "lat": 37.7519,
      "lon": 128.8761,
      "pop": 213000,
      "elevation_m": 12
    },
    {
      "name": "Mokpo",
      "lat": 34.8118,
      "lon": 126.3922,
      "pop": 224000,
      "elevation_m": 6
    },
    {
      "name": "Seogwipo",
      "lat": 33.2541,
      "lon": 126.5601,
      "pop": 190000,
      "elevation_m": 71
    }
  ],
  "sweden": [
    {
      "name": "Stockholm",
      "lat": 59.3293,
      "lon": 18.0686,
      "pop": 975000,
      "elevation_m": 15
    },
    {
      "name": "Göteborg",
      "lat": 57.7089,
      "lon": 11.9746,
      "pop": 583000,
      "elevation_m": 13
    },
    {
      "name": "Malmö",
      "lat": 55.605,
      "lon": 13.0038,
      "pop": 341000,
      "elevation_m": 11
    },
    {
      "name": "Uppsala",
      "lat": 59.8586,
      "lon": 17.6389,
      "pop": 230000,
      "elevation_m": 17
    },
    {
      "name": "Östersund",
      "lat": 63.1767,
      "lon": 14.6361,
      "pop": 50000,
      "elevation_m": 312
    },
    {
      "name": "Umeå",
      "lat": 63.8258,
      "lon": 20.263,
      "pop": 130000,
      "elevation_m": 19
    },
    {
      "name": "Luleå",
      "lat": 65.5848,
      "lon": 22.1567,
      "pop": 78000,
      "elevation_m": 11
    },
    {
      "name": "Kiruna",
      "lat": 67.8558,
      "lon": 20.2253,
      "pop": 23000,
      "elevation_m": 546
    },
    {
      "name": "Karlstad",
      "lat": 59.4022,
      "lon": 13.5115,
      "pop": 65000,
      "elevation_m": 49
    }
  ],
  "finland": [
    {
      "name": "Helsinki",
      "lat": 60.1695,
      "lon": 24.9354,
      "pop": 653000,
      "elevation_m": 25
    },
    {
      "name": "Tampere",
      "lat": 61.4978,
      "lon": 23.761,
      "pop": 241000,
      "elevation_m": 93
    },
    {
      "name": "Oulu",
      "lat": 65.0124,
      "lon": 25.4682,
      "pop": 207000,
      "elevation_m": 10
    },
    {
      "name": "Jyväskylä",
      "lat": 62.2426,
      "lon": 25.7473,
      "pop": 143000,
      "elevation_m": 103
    },
    {
      "name": "Lahti",
      "lat": 60.9827,
      "lon": 25.6615,
      "pop": 120000,
      "elevation_m": 112
    },
    {
      "name": "Kuopio",
      "lat": 62.8924,
      "lon": 27.677,
      "pop": 120000,
      "elevation_m": 105
    },
    {
      "name": "Pori",
      "lat": 61.4851,
      "lon": 21.7975,
      "pop": 83000,
      "elevation_m": 13
    },
    {
      "name": "Turku",
      "lat": 60.45148,
      "lon": 22.26869,
      "pop": 206655
    },
    {
      "name": "Joensuu",
      "lat": 62.60118,
      "lon": 29.76316,
      "pop": 78398
    }
  ],
  "norway": [
    {
      "name": "Oslo",
      "lat": 59.9139,
      "lon": 10.7522,
      "pop": 693000,
      "elevation_m": 12
    },
    {
      "name": "Bergen",
      "lat": 60.3913,
      "lon": 5.3221,
      "pop": 283000,
      "elevation_m": 14
    },
    {
      "name": "Trondheim",
      "lat": 63.4305,
      "lon": 10.3951,
      "pop": 205000,
      "elevation_m": 12
    },
    {
      "name": "Stavanger",
      "lat": 58.97,
      "lon": 5.7331,
      "pop": 143000,
      "elevation_m": 15
    },
    {
      "name": "Kristiansand",
      "lat": 58.1467,
      "lon": 7.9949,
      "pop": 112000,
      "elevation_m": 12
    },
    {
      "name": "Drammen",
      "lat": 59.7441,
      "lon": 10.2045,
      "pop": 101000,
      "elevation_m": 10
    },
    {
      "name": "Tromsø",
      "lat": 69.6496,
      "lon": 18.956,
      "pop": 77000,
      "elevation_m": 16
    },
    {
      "name": "Fredrikstad",
      "lat": 59.2181,
      "lon": 10.9298,
      "pop": 83761,
      "elevation_m": 24
    },
    {
      "name": "Sandefjord",
      "lat": 59.13118,
      "lon": 10.21665,
      "pop": 64345
    },
    {
      "name": "Skien",
      "lat": 59.20962,
      "lon": 9.60897,
      "pop": 50595
    }
  ],
  "netherlands": [
    {
      "name": "Amsterdam",
      "lat": 52.3676,
      "lon": 4.9041,
      "pop": 872000,
      "elevation_m": 5
    },
    {
      "name": "Rotterdam",
      "lat": 51.9225,
      "lon": 4.4792,
      "pop": 651000,
      "elevation_m": 7
    },
    {
      "name": "Utrecht",
      "lat": 52.0907,
      "lon": 5.1214,
      "pop": 359000,
      "elevation_m": 10
    },
    {
      "name": "Eindhoven",
      "lat": 51.4416,
      "lon": 5.4697,
      "pop": 235000,
      "elevation_m": 15
    },
    {
      "name": "Groningen",
      "lat": 53.2194,
      "lon": 6.5665,
      "pop": 233000,
      "elevation_m": 12
    },
    {
      "name": "Breda",
      "lat": 51.5719,
      "lon": 4.7683,
      "pop": 184000,
      "elevation_m": 5
    },
    {
      "name": "Nijmegen",
      "lat": 51.8126,
      "lon": 5.8372,
      "pop": 177000,
      "elevation_m": 15
    },
    {
      "name": "Maastricht",
      "lat": 50.8514,
      "lon": 5.691,
      "pop": 121000,
      "elevation_m": 52
    },
    {
      "name": "Enschede",
      "lat": 52.21833,
      "lon": 6.89583,
      "pop": 153655
    }
  ],
  "belgium": [
    {
      "name": "Brussels",
      "lat": 50.8503,
      "lon": 4.3517,
      "pop": 1211000,
      "elevation_m": 20
    },
    {
      "name": "Antwerp",
      "lat": 51.2194,
      "lon": 4.4025,
      "pop": 529000,
      "elevation_m": 12
    },
    {
      "name": "Ghent",
      "lat": 51.0543,
      "lon": 3.7174,
      "pop": 263000,
      "elevation_m": 12
    },
    {
      "name": "Charleroi",
      "lat": 50.4108,
      "lon": 4.4446,
      "pop": 202000,
      "elevation_m": 131
    },
    {
      "name": "Liège",
      "lat": 50.6326,
      "lon": 5.5797,
      "pop": 197000,
      "elevation_m": 65
    },
    {
      "name": "Bruges",
      "lat": 51.2093,
      "lon": 3.2247,
      "pop": 118000,
      "elevation_m": 13
    },
    {
      "name": "Namur",
      "lat": 50.4674,
      "lon": 4.8633,
      "pop": 111000,
      "elevation_m": 94
    },
    {
      "name": "Mons",
      "lat": 50.4542,
      "lon": 3.9567,
      "pop": 95000,
      "elevation_m": 45
    },
    {
      "name": "Arlon",
      "lat": 49.6833,
      "lon": 5.8167,
      "pop": 30000
    },
    {
      "name": "Bastogne",
      "lat": 50.0,
      "lon": 5.7167,
      "pop": 16000
    }
  ],
  "czechia": [
    {
      "name": "Prague",
      "lat": 50.0755,
      "lon": 14.4378,
      "pop": 1335000,
      "elevation_m": 244
    },
    {
      "name": "Brno",
      "lat": 49.1951,
      "lon": 16.6068,
      "pop": 382000,
      "elevation_m": 231
    },
    {
      "name": "Ostrava",
      "lat": 49.8209,
      "lon": 18.2625,
      "pop": 288000,
      "elevation_m": 230
    },
    {
      "name": "Plzeň",
      "lat": 49.7384,
      "lon": 13.3736,
      "pop": 174000,
      "elevation_m": 329
    },
    {
      "name": "Liberec",
      "lat": 50.7671,
      "lon": 15.0562,
      "pop": 104000,
      "elevation_m": 355
    },
    {
      "name": "Olomouc",
      "lat": 49.5938,
      "lon": 17.2508,
      "pop": 100000,
      "elevation_m": 228
    },
    {
      "name": "České Budějovice",
      "lat": 48.9745,
      "lon": 14.4741,
      "pop": 94000,
      "elevation_m": 396
    },
    {
      "name": "Ústí nad Labem",
      "lat": 50.6607,
      "lon": 14.0323,
      "pop": 92000,
      "elevation_m": 148
    },
    {
      "name": "Hradec Králové",
      "lat": 50.2104,
      "lon": 15.8252,
      "pop": 92000,
      "elevation_m": 239
    },
    {
      "name": "Zlín",
      "lat": 49.22645,
      "lon": 17.67065,
      "pop": 72973
    }
  ],
  "czech_republic": [
    {
      "name": "Prague",
      "lat": 50.0755,
      "lon": 14.4378,
      "pop": 1335000,
      "elevation_m": 244
    },
    {
      "name": "Brno",
      "lat": 49.1951,
      "lon": 16.6068,
      "pop": 382000,
      "elevation_m": 231
    },
    {
      "name": "Ostrava",
      "lat": 49.8209,
      "lon": 18.2625,
      "pop": 288000,
      "elevation_m": 230
    },
    {
      "name": "Plzeň",
      "lat": 49.7384,
      "lon": 13.3736,
      "pop": 174000,
      "elevation_m": 329
    },
    {
      "name": "Liberec",
      "lat": 50.7671,
      "lon": 15.0562,
      "pop": 104000,
      "elevation_m": 355
    },
    {
      "name": "Olomouc",
      "lat": 49.5938,
      "lon": 17.2508,
      "pop": 100000,
      "elevation_m": 228
    },
    {
      "name": "České Budějovice",
      "lat": 48.9745,
      "lon": 14.4741,
      "pop": 94000,
      "elevation_m": 396
    },
    {
      "name": "Ústí nad Labem",
      "lat": 50.6607,
      "lon": 14.0323,
      "pop": 92000,
      "elevation_m": 148
    },
    {
      "name": "Hradec Králové",
      "lat": 50.2104,
      "lon": 15.8252,
      "pop": 92000,
      "elevation_m": 239
    },
    {
      "name": "Zlín",
      "lat": 49.22645,
      "lon": 17.67065,
      "pop": 72973
    }
  ],
  "hungary": [
    {
      "name": "Budapest",
      "lat": 47.4979,
      "lon": 19.0402,
      "pop": 1752000,
      "elevation_m": 102
    },
    {
      "name": "Debrecen",
      "lat": 47.5316,
      "lon": 21.6273,
      "pop": 201000,
      "elevation_m": 128
    },
    {
      "name": "Szeged",
      "lat": 46.253,
      "lon": 20.1414,
      "pop": 160000,
      "elevation_m": 89
    },
    {
      "name": "Miskolc",
      "lat": 48.1035,
      "lon": 20.7784,
      "pop": 154000,
      "elevation_m": 138
    },
    {
      "name": "Pécs",
      "lat": 46.0727,
      "lon": 18.2323,
      "pop": 142000,
      "elevation_m": 141
    },
    {
      "name": "Győr",
      "lat": 47.6875,
      "lon": 17.6504,
      "pop": 132000,
      "elevation_m": 117
    },
    {
      "name": "Nyíregyháza",
      "lat": 47.9554,
      "lon": 21.7167,
      "pop": 116000,
      "elevation_m": 113
    },
    {
      "name": "Kecskemét",
      "lat": 46.9063,
      "lon": 19.6891,
      "pop": 110000,
      "elevation_m": 121
    },
    {
      "name": "Székesfehérvár",
      "lat": 47.186,
      "lon": 18.4221,
      "pop": 96000,
      "elevation_m": 114
    },
    {
      "name": "Szombathely",
      "lat": 47.2307,
      "lon": 16.6218,
      "pop": 78000,
      "elevation_m": 215
    }
  ],
  "romania": [
    {
      "name": "Bucharest",
      "lat": 44.4268,
      "lon": 26.1025,
      "pop": 1883000,
      "elevation_m": 70
    },
    {
      "name": "Cluj-Napoca",
      "lat": 46.7712,
      "lon": 23.5897,
      "pop": 324000,
      "elevation_m": 348
    },
    {
      "name": "Timișoara",
      "lat": 45.7489,
      "lon": 21.2087,
      "pop": 319000,
      "elevation_m": 91
    },
    {
      "name": "Iași",
      "lat": 47.1585,
      "lon": 27.6014,
      "pop": 318000,
      "elevation_m": 46
    },
    {
      "name": "Constanța",
      "lat": 44.1733,
      "lon": 28.6383,
      "pop": 283000,
      "elevation_m": 45
    },
    {
      "name": "Craiova",
      "lat": 44.3184,
      "lon": 23.8033,
      "pop": 269000,
      "elevation_m": 108
    },
    {
      "name": "Brasov",
      "lat": 45.6427,
      "lon": 25.5887,
      "pop": 253000,
      "elevation_m": 591
    },
    {
      "name": "Galați",
      "lat": 45.4353,
      "lon": 28.0326,
      "pop": 249000,
      "elevation_m": 57
    },
    {
      "name": "Ploiești",
      "lat": 44.9331,
      "lon": 26.0167,
      "pop": 209000,
      "elevation_m": 157
    },
    {
      "name": "Oradea",
      "lat": 47.0465,
      "lon": 21.9189,
      "pop": 196000,
      "elevation_m": 125
    }
  ],
  "slovenia": [
    {
      "name": "Ljubljana",
      "lat": 46.0569,
      "lon": 14.5058,
      "pop": 295000,
      "elevation_m": 281
    },
    { "name": "Kranjska Gora", "lat": 46.4844, "lon": 13.7847, "pop": 1500, "elevation_m": 806 },
    {
      "name": "Maribor",
      "lat": 46.5547,
      "lon": 15.6459,
      "pop": 112000,
      "elevation_m": 262
    },
    {
      "name": "Celje",
      "lat": 46.236,
      "lon": 15.2677,
      "pop": 38000,
      "elevation_m": 240
    },
    {
      "name": "Koper",
      "lat": 45.5481,
      "lon": 13.7303,
      "pop": 25000,
      "elevation_m": 18
    },
    {
      "name": "Novo Mesto",
      "lat": 45.8011,
      "lon": 15.1711,
      "pop": 24000,
      "elevation_m": 167
    },
    {
      "name": "Gorizia",
      "lat": 45.94088,
      "lon": 13.62167,
      "pop": 34428
    },
    { "name": "Nova Gorica", "lat": 45.9547, "lon": 13.6483, "pop": 13000, "elevation_m": 92 },
    { "name": "Kranj", "lat": 46.2389, "lon": 14.3556, "pop": 37000, "elevation_m": 385 },
    { "name": "Velenje", "lat": 46.3614, "lon": 15.1114, "pop": 25000, "elevation_m": 400 },
    { "name": "Murska Sobota", "lat": 46.6578, "lon": 16.1633, "pop": 11000, "elevation_m": 190 },
    { "name": "Bovec", "lat": 46.3375, "lon": 13.5528, "pop": 1600, "elevation_m": 460 },
    { "name": "Postojna", "lat": 45.7750, "lon": 14.2142, "pop": 9000, "elevation_m": 555 },
    { "name": "Kočevje", "lat": 45.6433, "lon": 14.8633, "pop": 8000, "elevation_m": 465 },
    { "name": "Ptuj", "lat": 46.4201, "lon": 15.8701, "pop": 18000, "elevation_m": 232 },
    { "name": "Trbovlje", "lat": 46.1550, "lon": 15.0533, "pop": 14000, "elevation_m": 307 },
    { "name": "Tolmin", "lat": 46.1828, "lon": 13.7314, "pop": 3300, "elevation_m": 200 },
    { "name": "Idrija", "lat": 46.0022, "lon": 14.0289, "pop": 5800, "elevation_m": 334 },
    { "name": "Kamnik", "lat": 46.2258, "lon": 14.6122, "pop": 13800, "elevation_m": 380 },
    { "name": "Bled", "lat": 46.3692, "lon": 14.1136, "pop": 4900, "elevation_m": 501 },
    { "name": "Rateče", "lat": 46.4969, "lon": 13.7139, "pop": 600, "elevation_m": 864 }
  ],
  "croatia": [
    {
      "name": "Zagreb",
      "lat": 45.815,
      "lon": 15.9819,
      "pop": 806000,
      "elevation_m": 130
    },
    {
      "name": "Split",
      "lat": 43.5081,
      "lon": 16.4402,
      "pop": 178000,
      "elevation_m": 17
    },
    {
      "name": "Rijeka",
      "lat": 45.3271,
      "lon": 14.4422,
      "pop": 128000,
      "elevation_m": 12
    },
    {
      "name": "Osijek",
      "lat": 45.555,
      "lon": 18.6955,
      "pop": 108000,
      "elevation_m": 91
    },
    {
      "name": "Zadar",
      "lat": 44.1194,
      "lon": 15.2314,
      "pop": 75000,
      "elevation_m": 2
    },
    {
      "name": "Pula",
      "lat": 44.8666,
      "lon": 13.8496,
      "pop": 57000,
      "elevation_m": 8
    },
    {
      "name": "Slavonski Brod",
      "lat": 45.1602,
      "lon": 18.0156,
      "pop": 59000,
      "elevation_m": 96
    },
    {
      "name": "Karlovac",
      "lat": 45.4929,
      "lon": 15.5553,
      "pop": 55000,
      "elevation_m": 115
    },
    {
      "name": "Varaždin",
      "lat": 46.3057,
      "lon": 16.3366,
      "pop": 47000,
      "elevation_m": 173
    },
    {
      "name": "Šibenik",
      "lat": 43.735,
      "lon": 15.895,
      "pop": 46000,
      "elevation_m": 31
    }
  ],
  "ireland": [
    {
      "name": "Dublin",
      "lat": 53.3498,
      "lon": -6.2603,
      "pop": 544000,
      "elevation_m": 8
    },
    {
      "name": "Cork",
      "lat": 51.8985,
      "lon": -8.4756,
      "pop": 125000,
      "elevation_m": 9
    },
    {
      "name": "Limerick",
      "lat": 52.6638,
      "lon": -8.6267,
      "pop": 94000,
      "elevation_m": 11
    },
    {
      "name": "Galway",
      "lat": 53.2707,
      "lon": -9.0568,
      "pop": 80000,
      "elevation_m": 7
    },
    {
      "name": "Waterford",
      "lat": 52.2593,
      "lon": -7.1101,
      "pop": 48000,
      "elevation_m": 15
    },
    {
      "name": "Drogheda",
      "lat": 53.7144,
      "lon": -6.3503,
      "pop": 41000,
      "elevation_m": 13
    },
    {
      "name": "Dundalk",
      "lat": 54.0039,
      "lon": -6.4022,
      "pop": 39000,
      "elevation_m": 7
    },
    {
      "name": "Ennis",
      "lat": 52.84361,
      "lon": -8.98639,
      "pop": 25276
    },
    {
      "name": "Carlow",
      "lat": 52.84083,
      "lon": -6.92611,
      "pop": 24272
    },
    {
      "name": "Tralee",
      "lat": 52.27042,
      "lon": -9.70264,
      "pop": 22941
    }
  ],
  "denmark": [
    {
      "name": "Copenhagen",
      "lat": 55.6761,
      "lon": 12.5683,
      "pop": 602000,
      "elevation_m": 5
    },
    {
      "name": "Aarhus",
      "lat": 56.1567,
      "lon": 10.2108,
      "pop": 273000,
      "elevation_m": 9
    },
    {
      "name": "Odense",
      "lat": 55.4038,
      "lon": 10.4024,
      "pop": 178000,
      "elevation_m": 14
    },
    {
      "name": "Aalborg",
      "lat": 57.0488,
      "lon": 9.9217,
      "pop": 114000,
      "elevation_m": 10
    },
    {
      "name": "Esbjerg",
      "lat": 55.467,
      "lon": 8.452,
      "pop": 72000,
      "elevation_m": 16
    },
    {
      "name": "Randers",
      "lat": 56.4607,
      "lon": 10.0364,
      "pop": 62000,
      "elevation_m": 12
    },
    {
      "name": "Horsens",
      "lat": 55.8607,
      "lon": 9.8477,
      "pop": 58000,
      "elevation_m": 6
    },
    {
      "name": "Roskilde",
      "lat": 55.6419,
      "lon": 12.0878,
      "pop": 50000,
      "elevation_m": 42
    },
    {
      "name": "Kolding",
      "lat": 55.4904,
      "lon": 9.47216,
      "pop": 61638
    }
  ],
  "china": [
    {
      "name": "Shanghai",
      "lat": 31.2304,
      "lon": 121.4737,
      "pop": 24870000,
      "elevation_m": 5
    },
    {
      "name": "Beijing",
      "lat": 39.9042,
      "lon": 116.4074,
      "pop": 21893000,
      "elevation_m": 44
    },
    {
      "name": "Guangzhou",
      "lat": 23.1291,
      "lon": 113.2644,
      "pop": 18676000,
      "elevation_m": 17
    },
    {
      "name": "Chengdu",
      "lat": 30.5728,
      "lon": 104.0668,
      "pop": 20937000,
      "elevation_m": 485
    },
    {
      "name": "Chongqing",
      "lat": 29.563,
      "lon": 106.5516,
      "pop": 32054000,
      "elevation_m": 251
    },
    {
      "name": "Xi'an",
      "lat": 34.3416,
      "lon": 108.9398,
      "pop": 12180000,
      "elevation_m": 380
    },
    {
      "name": "Harbin",
      "lat": 45.7567,
      "lon": 126.6424,
      "pop": 10009000,
      "elevation_m": 148
    },
    {
      "name": "Urumqi",
      "lat": 43.8256,
      "lon": 87.6168,
      "pop": 4054000,
      "elevation_m": 836
    },
    {
      "name": "Lhasa",
      "lat": 29.6469,
      "lon": 91.1172,
      "pop": 867000,
      "elevation_m": 3650
    }
  ],
  "indonesia": [
    {
      "name": "Jakarta",
      "lat": -6.2088,
      "lon": 106.8456,
      "pop": 10562000,
      "elevation_m": 8
    },
    {
      "name": "Surabaya",
      "lat": -7.2575,
      "lon": 112.7521,
      "pop": 2874000,
      "elevation_m": 8
    },
    {
      "name": "Bandung",
      "lat": -6.9175,
      "lon": 107.6191,
      "pop": 2444000,
      "elevation_m": 703
    },
    {
      "name": "Medan",
      "lat": 3.5952,
      "lon": 98.6722,
      "pop": 2435000,
      "elevation_m": 26
    },
    {
      "name": "Palembang",
      "lat": -2.9909,
      "lon": 104.7567,
      "pop": 1668000,
      "elevation_m": 7
    },
    {
      "name": "Semarang",
      "lat": -6.9667,
      "lon": 110.4167,
      "pop": 1653000,
      "elevation_m": 4
    },
    {
      "name": "Makassar",
      "lat": -5.1476,
      "lon": 119.4327,
      "pop": 1423000,
      "elevation_m": 5
    },
    {
      "name": "Ambon",
      "lat": -3.6954,
      "lon": 128.1814,
      "pop": 400000,
      "elevation_m": 7
    },
    {
      "name": "Jepara",
      "lat": -6.5924,
      "lon": 110.671,
      "pop": 1257912
    },
    {
      "name": "Bandar Lampung",
      "lat": -5.42917,
      "lon": 105.26111,
      "pop": 1166066
    },
    {
      "name": "Batam",
      "lat": 1.14937,
      "lon": 104.02491,
      "pop": 1164352
    },
    {
      "name": "Banjarmasin",
      "lat": -3.3194,
      "lon": 114.5908,
      "pop": 657663
    }
  ],
  "palestine": [
    { "name": "Gaza City", "lat": 31.5016, "lon": 34.4668, "pop": 590000, "elevation_m": 30 },
    { "name": "Khan Yunis", "lat": 31.3462, "lon": 34.3039, "pop": 205000, "elevation_m": 27 },
    { "name": "Rafah", "lat": 31.2844, "lon": 34.2544, "pop": 170000, "elevation_m": 25 },
    { "name": "Beit Lahia", "lat": 31.5544, "lon": 34.5022, "pop": 90000, "elevation_m": 20 },
    { "name": "East Jerusalem", "lat": 31.7767, "lon": 35.2342, "pop": 580000, "elevation_m": 754 },
    { "name": "Hebron", "lat": 31.5298, "lon": 35.0917, "pop": 200000, "elevation_m": 930 },
    { "name": "Nablus", "lat": 32.2211, "lon": 35.2544, "pop": 156000, "elevation_m": 550 },
    { "name": "Ramallah", "lat": 31.9029, "lon": 35.2041, "pop": 40000, "elevation_m": 880 },
    { "name": "Jericho", "lat": 31.8578, "lon": 35.4444, "pop": 22000, "elevation_m": -260 }
  ],
  "vietnam": [
    {
      "name": "Ho Chi Minh City",
      "lat": 10.8231,
      "lon": 106.6297,
      "pop": 8993000,
      "elevation_m": 6
    },
    {
      "name": "Hanoi",
      "lat": 21.0285,
      "lon": 105.8542,
      "pop": 8053000,
      "elevation_m": 10
    },
    {
      "name": "Da Lat",
      "lat": 11.9465,
      "lon": 108.4419,
      "pop": 425000,
      "elevation_m": 1500
    },
    {
      "name": "Can Tho",
      "lat": 10.0452,
      "lon": 105.7469,
      "pop": 1235000,
      "elevation_m": 4
    },
    {
      "name": "Da Nang",
      "lat": 16.0544,
      "lon": 108.2022,
      "pop": 1134000,
      "elevation_m": 6
    },
    {
      "name": "Buon Ma Thuot",
      "lat": 12.6667,
      "lon": 108.05,
      "pop": 375000,
      "elevation_m": 472
    },
    {
      "name": "Vung Tau",
      "lat": 10.346,
      "lon": 107.0843,
      "pop": 357000,
      "elevation_m": 13
    },
    {
      "name": "To Hieu",
      "lat": 21.328557,
      "lon": 103.919464,
      "pop": 8500,
      "elevation_m": 635
    },
    {
      "name": "Do Luong",
      "lat": 18.9056,
      "lon": 105.3050,
      "pop": 21000,
      "elevation_m": 15
    },
    {
      "name": "Thanh Hoa",
      "lat": 19.8,
      "lon": 105.76667,
      "pop": 850000
    }
  ],
  "philippines": [
    {
      "name": "Manila",
      "lat": 14.5995,
      "lon": 120.9842,
      "pop": 1846000,
      "elevation_m": 7
    },
    {
      "name": "Davao City",
      "lat": 7.063375,
      "lon": 125.601348,
      "pop": 1776000,
      "elevation_m": 22
    },
    {
      "name": "Zamboanga City",
      "lat": 6.9214,
      "lon": 122.0797,
      "pop": 977000,
      "elevation_m": 10
    },
    {
      "name": "Cebu City",
      "lat": 10.3157,
      "lon": 123.8854,
      "pop": 964000,
      "elevation_m": 39
    },
    {
      "name": "Puerto Princesa",
      "lat": 9.7392,
      "lon": 118.7353,
      "pop": 307000,
      "elevation_m": 16
    },
    {
      "name": "Baguio",
      "lat": 16.4023,
      "lon": 120.5960,
      "pop": 366358,
      "elevation_m": 1540
    },
    {
      "name": "City of Santiago",
      "lat": 16.6888,
      "lon": 121.5491,
      "pop": 148580,
      "elevation_m": 90
    },
    {
      "name": "Roxas City",
      "lat": 11.5853,
      "lon": 122.7511,
      "pop": 179352,
      "elevation_m": 3
    },
    {
      "name": "General Santos",
      "lat": 6.11278,
      "lon": 125.17167,
      "pop": 722059
    },
    {
      "name": "Calamba",
      "lat": 14.21167,
      "lon": 121.16528,
      "pop": 575046
    },
    {
      "name": "Angeles City",
      "lat": 15.15,
      "lon": 120.58333,
      "pop": 483452
    }
  ],
  "malaysia": [
    {
      "name": "Kuala Lumpur",
      "lat": 3.139,
      "lon": 101.6869,
      "elevation_m": 60
    },
    {
      "name": "Ipoh",
      "lat": 4.5975,
      "lon": 101.0901,
      "elevation_m": 54
    },
    {
      "name": "Kuching",
      "lat": 1.5535,
      "lon": 110.3593,
      "elevation_m": 3
    },
    {
      "name": "Kota Kinabalu",
      "lat": 5.9804,
      "lon": 116.0735,
      "elevation_m": 7
    },
    {
      "name": "Johor Bahru",
      "lat": 1.4655,
      "lon": 103.7578,
      "elevation_m": 12
    },
    {
      "name": "Kota Bharu",
      "lat": 6.1236,
      "lon": 102.2433,
      "elevation_m": 5
    },
    {
      "name": "Malakka",
      "lat": 2.1896,
      "lon": 102.2501,
      "elevation_m": 6
    },
    {
      "name": "George Town",
      "lat": 5.4141,
      "lon": 100.3288,
      "elevation_m": 4
    },
    {
      "name": "Kuantan",
      "lat": 3.8077,
      "lon": 103.326,
      "elevation_m": 10
    },
    {
      "name": "Miri",
      "lat": 4.3995,
      "lon": 113.9914,
      "elevation_m": 8
    },
    {
      "name": "Raub",
      "lat": 3.7891,
      "lon": 101.8561,
      "elevation_m": 150
    },
    {
      "name": "Bario",
      "lat": 3.7314,
      "lon": 115.4736,
      "elevation_m": 1050
    }
  ],
  "pakistan": [
    {
      "name": "Karachi",
      "lat": 24.8607,
      "lon": 67.0011,
      "pop": 14910000,
      "elevation_m": 7
    },
    {
      "name": "Lahore",
      "lat": 31.5204,
      "lon": 74.3587,
      "pop": 11126000,
      "elevation_m": 220
    },
    {
      "name": "Faisalabad",
      "lat": 31.4504,
      "lon": 73.135,
      "pop": 3203000,
      "elevation_m": 188
    },
    {
      "name": "Gujranwala",
      "lat": 32.1877,
      "lon": 74.1945,
      "pop": 2027000,
      "elevation_m": 230
    },
    {
      "name": "Multan",
      "lat": 30.1575,
      "lon": 71.5249,
      "pop": 1871000,
      "elevation_m": 125
    },
    {
      "name": "Hyderabad",
      "lat": 25.396,
      "lon": 68.3578,
      "pop": 1732000,
      "elevation_m": 29
    },
    {
      "name": "Islamabad",
      "lat": 33.6844,
      "lon": 73.0479,
      "pop": 1014000,
      "elevation_m": 560
    },
    {
      "name": "Quetta",
      "lat": 30.1798,
      "lon": 66.975,
      "pop": 1001000,
      "elevation_m": 1645
    }
  ],
  "tibet": [
    {
      "name": "Lhasa",
      "lat": 29.65,
      "lon": 91.1,
      "pop": 902000
    },
    {
      "name": "Shigatse",
      "lat": 29.25,
      "lon": 88.8833,
      "pop": 124000
    },
    {
      "name": "Chamdo",
      "lat": 31.1369,
      "lon": 97.1784,
      "pop": 110000
    },
    {
      "name": "Nagqu",
      "lat": 31.4762,
      "lon": 92.0513,
      "pop": 96000
    },
    {
      "name": "Nyingchi",
      "lat": 29.6486,
      "lon": 94.3624,
      "pop": 77000
    },
    {
      "name": "Shannan",
      "lat": 29.2369,
      "lon": 91.75,
      "pop": 73000
    },
    {
      "name": "Gyantse",
      "lat": 28.9167,
      "lon": 89.6,
      "pop": 34000
    },
    {
      "name": "Shiquanhe",
      "lat": 32.502,
      "lon": 80.104,
      "pop": 24100
    },
    {
      "name": "Dêqên",
      "lat": 29.9618,
      "lon": 90.7188,
      "pop": 62400
    },
    {
      "name": "Lhünzhub",
      "lat": 29.8931,
      "lon": 91.2617,
      "pop": 50596
    },
    {
      "name": "Rutog",
      "lat": 33.3833,
      "lon": 79.7333,
      "pop": 12000
    },
    {
      "name": "Amdo",
      "lat": 32.2667,
      "lon": 91.6833,
      "pop": 15000
    },
    {
      "name": "Gaizezhen",
      "lat": 32.2811,
      "lon": 84.0372,
      "pop": 22000
    },
    {
      "name": "Zogang",
      "lat": 29.6783,
      "lon": 97.8306,
      "pop": 44000
    }
  ],
  "thailand": [
    {
      "name": "Bangkok",
      "lat": 13.7563,
      "lon": 100.5018,
      "pop": 8280000,
      "elevation_m": 1
    },
    {
      "name": "Chon Buri",
      "lat": 13.3611,
      "lon": 100.9847,
      "pop": 180000,
      "elevation_m": 8
    },
    {
      "name": "Phitsanulok",
      "lat": 16.8211,
      "lon": 100.2659,
      "pop": 66000,
      "elevation_m": 45
    },
    {
      "name": "Hat Yai",
      "lat": 7.0084,
      "lon": 100.4747,
      "pop": 156000,
      "elevation_m": 12
    },
    {
      "name": "Chiang Mai",
      "lat": 18.7883,
      "lon": 98.9853,
      "pop": 127000,
      "elevation_m": 313
    },
    {
      "name": "Nakhon Ratchasima",
      "lat": 14.9799,
      "lon": 102.0978,
      "pop": 126000,
      "elevation_m": 183
    },
    {
      "name": "Khon Kaen",
      "lat": 16.4322,
      "lon": 102.8236,
      "pop": 114000,
      "elevation_m": 157
    },
    {
      "name": "Phuket",
      "lat": 7.8804,
      "lon": 98.3923,
      "pop": 83000,
      "elevation_m": 6
    },
    {
      "name": "Lat Krabang",
      "lat": 13.72341,
      "lon": 100.78436,
      "pop": 163175
    },
    {
      "name": "Lampang",
      "lat": 18.29232,
      "lon": 99.49277,
      "pop": 156139
    },
    {
      "name": "Kabin Buri",
      "lat": 13.95114,
      "lon": 101.71769,
      "pop": 140056
    }
  ],
  "iran": [
    {
      "name": "Tehran",
      "lat": 35.69,
      "lon": 51.39,
      "pop": 8693706
    },
    {
      "name": "Ahvaz",
      "lat": 31.3183,
      "lon": 48.6706,
      "pop": 1184788
    },
    {
      "name": "Isfahan",
      "lat": 32.6546,
      "lon": 51.668,
      "pop": 1961260
    },
    {
      "name": "Kermanshah",
      "lat": 34.3277,
      "lon": 47.0778,
      "pop": 946651
    },
    {
      "name": "Mashhad",
      "lat": 36.2972,
      "lon": 59.6067,
      "pop": 3001184
    },
    {
      "name": "Shiraz",
      "lat": 29.5918,
      "lon": 52.5837,
      "pop": 1565572
    },
    {
      "name": "Tabriz",
      "lat": 38.0962,
      "lon": 46.2731,
      "pop": 1558693
    },
    {
      "name": "Zahedan",
      "lat": 29.4963,
      "lon": 60.8629,
      "pop": 587730
    },
    {
      "name": "Bandar Abbas",
      "lat": 27.1833,
      "lon": 56.2667,
      "pop": 526648
    },
    {
      "name": "Kerman",
      "lat": 30.2839,
      "lon": 57.0833,
      "pop": 537718
    },
    {
      "name": "Zabol",
      "lat": 31.0306,
      "lon": 61.4925,
      "pop": 134950
    }
  ],
  "taiwan": [
    {
      "name": "New Taipei",
      "lat": 25.0123,
      "lon": 121.4654,
      "pop": 4030000,
      "elevation_m": 22
    },
    {
      "name": "Taichung",
      "lat": 24.1477,
      "lon": 120.6736,
      "pop": 2816000,
      "elevation_m": 86
    },
    {
      "name": "Kaohsiung",
      "lat": 22.6273,
      "lon": 120.3014,
      "pop": 2773000,
      "elevation_m": 8
    },
    {
      "name": "Tainan",
      "lat": 22.9997,
      "lon": 120.227,
      "pop": 1883000,
      "elevation_m": 27
    },
    {
      "name": "Hsinchu",
      "lat": 24.8138,
      "lon": 120.9675,
      "pop": 451000,
      "elevation_m": 19
    },
    {
      "name": "Chiayi",
      "lat": 23.48,
      "lon": 120.4491,
      "pop": 267000,
      "elevation_m": 42
    },
    {
      "name": "Taitung",
      "lat": 22.75991,
      "lon": 121.14457,
      "pop": 103260
    }
  ],
  "georgia": [
    {
      "name": "Tbilisi",
      "lat": 41.7151,
      "lon": 44.8271,
      "pop": 1101000,
      "elevation_m": 451
    },
    {
      "name": "Batumi",
      "lat": 41.6168,
      "lon": 41.6367,
      "pop": 169000,
      "elevation_m": 3
    },
    {
      "name": "Kutaisi",
      "lat": 42.2662,
      "lon": 42.718,
      "pop": 147000,
      "elevation_m": 192
    },
    {
      "name": "Sukhumi",
      "lat": 43.0033,
      "lon": 41.0153,
      "pop": 64000,
      "elevation_m": 7
    },
    {
      "name": "Gori",
      "lat": 41.9842,
      "lon": 44.1158,
      "pop": 48000,
      "elevation_m": 598
    },
    {
      "name": "Zugdidi",
      "lat": 42.5083,
      "lon": 41.8708,
      "pop": 42000,
      "elevation_m": 113
    },
    {
      "name": "Poti",
      "lat": 42.1464,
      "lon": 41.6719,
      "pop": 41000,
      "elevation_m": 4
    },
    {
      "name": "Khashuri",
      "lat": 41.99733,
      "lon": 43.59905,
      "pop": 23949
    },
    {
      "name": "Zestaponi",
      "lat": 42.10752,
      "lon": 43.03291,
      "pop": 20183
    }
  ],
  "usa": [
    {
      "name": "New York City",
      "lat": 40.7128,
      "lon": -74.006,
      "pop": 8336000,
      "elevation_m": 32
    },
    {
      "name": "Los Angeles",
      "lat": 34.0522,
      "lon": -118.2437,
      "pop": 3979000,
      "elevation_m": 91
    },
    {
      "name": "Chicago",
      "lat": 41.8781,
      "lon": -87.6298,
      "pop": 2693000,
      "elevation_m": 241
    },
    {
      "name": "Houston",
      "lat": 29.7604,
      "lon": -95.3698,
      "pop": 2320000,
      "elevation_m": 20
    },
    {
      "name": "Seattle",
      "lat": 47.608013,
      "lon": -122.335167,
      "pop": 744955,
      "elevation_m": 49
    },
    {
      "name": "San Francisco",
      "lat": 37.7749,
      "lon": -122.4194,
      "pop": 874000,
      "elevation_m": 18
    },
    {
      "name": "Atlanta",
      "lat": 33.753746,
      "lon": -84.38633,
      "pop": 744955,
      "elevation_m": 322
    },
    {
      "name": "Miami",
      "lat": 25.7617,
      "lon": -80.1918,
      "pop": 442000,
      "elevation_m": 2
    },
    {
      "name": "Kansas City",
      "lat": 39.0997,
      "lon": -94.5786,
      "pop": 508000,
      "elevation_m": 280
    },
    {
      "name": "Philadelphia",
      "lat": 39.9526,
      "lon": -75.1652,
      "pop": 1567000,
      "elevation_m": 32
    },
    {
      "name": "Dallas",
      "lat": 32.7767,
      "lon": -96.797,
      "pop": 1343000,
      "elevation_m": 137
    },
    {
      "name": "Denver",
      "lat": 39.7392,
      "lon": -104.9903,
      "pop": 715000,
      "elevation_m": 1599
    },
    {
      "name": "Salt Lake City",
      "lat": 40.7608,
      "lon": -111.891,
      "pop": 200000,
      "elevation_m": 1302
    },
    {
      "name": "Boulder",
      "lat": 40.015,
      "lon": -105.2705,
      "elevation_m": 1655
    }
  ],
  "united states of america": [
    {
      "name": "New York City",
      "lat": 40.7128,
      "lon": -74.006,
      "pop": 8336000,
      "elevation_m": 32
    },
    {
      "name": "Los Angeles",
      "lat": 34.0522,
      "lon": -118.2437,
      "pop": 3979000,
      "elevation_m": 91
    },
    {
      "name": "Chicago",
      "lat": 41.8781,
      "lon": -87.6298,
      "pop": 2693000,
      "elevation_m": 241
    },
    {
      "name": "Houston",
      "lat": 29.7604,
      "lon": -95.3698,
      "pop": 2320000,
      "elevation_m": 20
    },
    {
      "name": "Seattle",
      "lat": 47.608013,
      "lon": -122.335167,
      "pop": 744955,
      "elevation_m": 49
    },
    {
      "name": "Atlanta",
      "lat": 33.753746,
      "lon": -84.38633,
      "pop": 744955,
      "elevation_m": 322
    },
    {
      "name": "San Francisco",
      "lat": 37.7749,
      "lon": -122.4194,
      "pop": 874000,
      "elevation_m": 18
    },
    {
      "name": "Miami",
      "lat": 25.7617,
      "lon": -80.1918,
      "pop": 442000,
      "elevation_m": 2
    },
    {
      "name": "Kansas City",
      "lat": 39.0997,
      "lon": -94.5786,
      "pop": 508000,
      "elevation_m": 280
    },
    {
      "name": "Philadelphia",
      "lat": 39.9526,
      "lon": -75.1652,
      "pop": 1567000,
      "elevation_m": 32
    },
    {
      "name": "Dallas",
      "lat": 32.7767,
      "lon": -96.797,
      "pop": 1343000,
      "elevation_m": 137
    },
    {
      "name": "Denver",
      "lat": 39.7392,
      "lon": -104.9903,
      "pop": 715000,
      "elevation_m": 1599
    },
    {
      "name": "Salt Lake City",
      "lat": 40.7608,
      "lon": -111.891,
      "pop": 200000,
      "elevation_m": 1302
    },
    {
      "name": "Boulder",
      "lat": 40.015,
      "lon": -105.2705,
      "elevation_m": 1655
    }
  ],
  "canada": [
    {
      "name": "Toronto",
      "lat": 43.6532,
      "lon": -79.3832,
      "pop": 2731000,
      "elevation_m": 99
    },
    {
      "name": "Vancouver",
      "lat": 49.2827,
      "lon": -123.1207,
      "pop": 675000,
      "elevation_m": 40
    },
    {
      "name": "Calgary",
      "lat": 51.0447,
      "lon": -114.0719,
      "pop": 1239000,
      "elevation_m": 1051
    },
    {
      "name": "Edmonton",
      "lat": 53.5461,
      "lon": -113.4938,
      "pop": 932000,
      "elevation_m": 669
    },
    {
      "name": "Ottawa",
      "lat": 45.4215,
      "lon": -75.6972,
      "pop": 934000,
      "elevation_m": 74
    },
    {
      "name": "Winnipeg",
      "lat": 49.8951,
      "lon": -97.1384,
      "pop": 705000,
      "elevation_m": 232
    },
    {
      "name": "Quebec City",
      "lat": 46.8139,
      "lon": -71.208,
      "pop": 531000,
      "elevation_m": 51
    },
    {
      "name": "Hamilton",
      "lat": 43.2557,
      "lon": -79.8711,
      "pop": 536000,
      "elevation_m": 102
    },
    {
      "name": "Kitchener",
      "lat": 43.4516,
      "lon": -80.4925,
      "pop": 233000,
      "elevation_m": 337
    },
    {
      "name": "Whitehorse",
      "lat": 60.7212,
      "lon": -135.0568,
      "pop": 28000,
      "elevation_m": 639
    },
    {
      "name": "Dawson City",
      "lat": 64.0601,
      "lon": -139.4326,
      "pop": 1400,
      "elevation_m": 321
    },
    {
      "name": "Iqaluit",
      "lat": 63.7467,
      "lon": -68.517,
      "pop": 7700,
      "elevation_m": 17
    }
  ],
  "brazil": [
    {
      "name": "São Paulo",
      "lat": -23.5505,
      "lon": -46.6333,
      "pop": 12300000,
      "elevation_m": 758
    },
    {
      "name": "Rio de Janeiro",
      "lat": -22.9068,
      "lon": -43.1729,
      "pop": 6748000,
      "elevation_m": 12
    },
    {
      "name": "Brasília",
      "lat": -15.7942,
      "lon": -47.8822,
      "pop": 3055000,
      "elevation_m": 1079
    },
    {
      "name": "Salvador",
      "lat": -12.9714,
      "lon": -38.5014,
      "pop": 2886000,
      "elevation_m": 62
    },
    {
      "name": "Fortaleza",
      "lat": -3.7172,
      "lon": -38.5433,
      "pop": 2687000,
      "elevation_m": 14
    },
    {
      "name": "Belo Horizonte",
      "lat": -19.9167,
      "lon": -43.9345,
      "pop": 2521000,
      "elevation_m": 843
    },
    {
      "name": "Manaus",
      "lat": -3.119,
      "lon": -60.0217,
      "pop": 2219000,
      "elevation_m": 47
    },
    {
      "name": "Curitiba",
      "lat": -25.4284,
      "lon": -49.2733,
      "pop": 1948000,
      "elevation_m": 920
    },
    {
      "name": "Recife",
      "lat": -8.0543,
      "lon": -34.8813,
      "pop": 1653000,
      "elevation_m": 3
    },
    {
      "name": "Porto Alegre",
      "lat": -30.0346,
      "lon": -51.2177,
      "pop": 1488000,
      "elevation_m": 15
    }
  ],
  "amazonas": [
    {
      "name": "Manaus",
      "lat": -3.10194,
      "lon": -60.025,
      "pop": 2219580,
      "elevation_m": 20
    },
    {
      "name": "Itacoatiara",
      "lat": -3.14306,
      "lon": -58.44417,
      "pop": 112520,
      "elevation_m": 19
    },
    {
      "name": "Manacapuru",
      "lat": -3.29972,
      "lon": -60.62056,
      "pop": 110691,
      "elevation_m": 34
    },
    {
      "name": "Parintins",
      "lat": -2.62833,
      "lon": -56.73583,
      "pop": 101956,
      "elevation_m": 17
    },
    {
      "name": "Tefé",
      "lat": -3.36841,
      "lon": -64.72054,
      "pop": 79278,
      "elevation_m": 64
    },
    {
      "name": "Coari",
      "lat": -4.085,
      "lon": -63.14139,
      "pop": 73820,
      "elevation_m": 42
    },
    {
      "name": "Tabatinga",
      "lat": -4.23116,
      "lon": -69.93858,
      "pop": 72283,
      "elevation_m": 80
    },
    {
      "name": "Iranduba",
      "lat": -3.28472,
      "lon": -60.18611,
      "pop": 67114,
      "elevation_m": 29
    },
    {
      "name": "Maués",
      "lat": -3.38361,
      "lon": -57.71861,
      "pop": 65714,
      "elevation_m": 19
    },
    {
      "name": "Humaitá",
      "lat": -7.51651,
      "lon": -63.03105,
      "pop": 62312,
      "elevation_m": 54
    }
  ],
  "australia": [
    {
      "name": "Sydney",
      "lat": -33.8688,
      "lon": 151.2093,
      "pop": 5312000,
      "elevation_m": 3
    },
    {
      "name": "Melbourne",
      "lat": -37.8136,
      "lon": 144.9631,
      "pop": 5078000,
      "elevation_m": 19
    },
    {
      "name": "Brisbane",
      "lat": -27.4698,
      "lon": 153.0251,
      "pop": 2560000,
      "elevation_m": 18
    },
    {
      "name": "Perth",
      "lat": -31.9505,
      "lon": 115.8605,
      "pop": 2125000,
      "elevation_m": 19
    },
    {
      "name": "Adelaide",
      "lat": -34.9285,
      "lon": 138.6007,
      "pop": 1336000,
      "elevation_m": 46
    },
    {
      "name": "Newman",
      "lat": -23.3539,
      "lon": 119.7319,
      "pop": 6439
    },
    {
      "name": "Cairns",
      "lat": -16.9203,
      "lon": 145.771,
      "pop": 155300
    },
    {
      "name": "Gold Coast",
      "lat": -28.0167,
      "lon": 153.4,
      "pop": 679000,
      "elevation_m": 3
    },
    {
      "name": "Canberra",
      "lat": -35.2809,
      "lon": 149.13,
      "pop": 426000,
      "elevation_m": 605
    },
    {
      "name": "Newcastle",
      "lat": -32.9283,
      "lon": 151.7817,
      "pop": 322000,
      "elevation_m": 16
    },
    {
      "name": "Hobart",
      "lat": -42.8821,
      "lon": 147.3272,
      "pop": 206000,
      "elevation_m": 14
    },
    {
      "name": "Darwin",
      "lat": -12.4634,
      "lon": 130.8456,
      "pop": 132000,
      "elevation_m": 32
    },
    {
      "name": "Alice Springs",
      "lat": -23.698,
      "lon": 133.8807,
      "pop": 26000,
      "elevation_m": 581
    }
  ],
  "japan": [
    {
      "name": "Tokyo",
      "lat": 35.6895,
      "lon": 139.6917,
      "pop": 13960000,
      "elevation_m": 17
    },
    {
      "name": "Osaka",
      "lat": 34.6937,
      "lon": 135.5023,
      "pop": 2740000,
      "elevation_m": 3
    },
    {
      "name": "Nagoya",
      "lat": 35.1815,
      "lon": 136.9066,
      "pop": 2320000,
      "elevation_m": 23
    },
    {
      "name": "Sapporo",
      "lat": 43.0611,
      "lon": 141.3564,
      "pop": 1952000,
      "elevation_m": 24
    },
    {
      "name": "Fukuoka",
      "lat": 33.5902,
      "lon": 130.4017,
      "pop": 1538000,
      "elevation_m": 8
    },
    {
      "name": "Kyoto",
      "lat": 35.0116,
      "lon": 135.7681,
      "pop": 1475000,
      "elevation_m": 51
    },
    {
      "name": "Hiroshima",
      "lat": 34.4,
      "lon": 132.45,
      "pop": 1200754
    },
    {
      "name": "Sendai",
      "lat": 38.26667,
      "lon": 140.86667,
      "pop": 1096704
    },
    {
      "name": "Chiba",
      "lat": 35.6,
      "lon": 140.11667,
      "pop": 979768
    },
    {
      "name": "Kitakyushu",
      "lat": 33.85181,
      "lon": 130.85034,
      "pop": 940978
    }
  ],
  "argentina": [
    {
      "name": "Buenos Aires",
      "lat": -34.6037,
      "lon": -58.3816,
      "pop": 15154000,
      "elevation_m": 10
    },
    {
      "name": "Córdoba",
      "lat": -31.4167,
      "lon": -64.1833,
      "pop": 1565000,
      "elevation_m": 395
    },
    {
      "name": "Rosario",
      "lat": -32.9468,
      "lon": -60.6393,
      "pop": 1325000,
      "elevation_m": 36
    },
    {
      "name": "Tucumán",
      "lat": -26.8241,
      "lon": -65.2226,
      "pop": 883000,
      "elevation_m": 448
    },
    {
      "name": "La Plata",
      "lat": -34.9214,
      "lon": -57.9544,
      "pop": 732000,
      "elevation_m": 18
    },
    {
      "name": "Mar del Plata",
      "lat": -38.0055,
      "lon": -57.5426,
      "pop": 638000,
      "elevation_m": 15
    },
    {
      "name": "Salta",
      "lat": -24.7859,
      "lon": -65.4117,
      "pop": 619000,
      "elevation_m": 1180
    },
    {
      "name": "San Juan",
      "lat": -31.5375,
      "lon": -68.5364,
      "pop": 491000,
      "elevation_m": 641
    },
    {
      "name": "Resistencia",
      "lat": -27.4514,
      "lon": -58.9867,
      "pop": 387000,
      "elevation_m": 50
    },
    {
      "name": "Catua",
      "lat": -23.8550,
      "lon": -67.0150,
      "pop": 900,
      "elevation_m": 4100
    },
    {
      "name": "Neuquén",
      "lat": -38.9516,
      "lon": -68.0591,
      "pop": 377000,
      "elevation_m": 270
    },
    {
      "name": "Posadas",
      "lat": -27.3671,
      "lon": -55.8961,
      "pop": 325000,
      "elevation_m": 120
    },
    {
      "name": "San Salvador de Jujuy",
      "lat": -24.1858,
      "lon": -65.2995,
      "pop": 310000,
      "elevation_m": 1259
    },
    {
      "name": "Comodoro Rivadavia",
      "lat": -45.8641,
      "lon": -67.4808,
      "pop": 173000,
      "elevation_m": 61
    },
    {
      "name": "Río Gallegos",
      "lat": -51.6226,
      "lon": -69.2181,
      "pop": 115000,
      "elevation_m": 20
    },
    {
      "name": "Ushuaia",
      "lat": -54.8019,
      "lon": -68.3030,
      "pop": 75000,
      "elevation_m": 7
    }
  ],
  "mexico": [
    {
      "name": "Mexico City",
      "lat": 19.4326,
      "lon": -99.1332,
      "pop": 21804000,
      "elevation_m": 2240
    },
    {
      "name": "Guadalajara",
      "lat": 20.6767,
      "lon": -103.3475,
      "pop": 5268000,
      "elevation_m": 1554
    },
    {
      "name": "Monterrey",
      "lat": 25.6866,
      "lon": -100.3161,
      "pop": 5119000,
      "elevation_m": 543
    },
    {
      "name": "Tijuana",
      "lat": 32.5149,
      "lon": -117.0382,
      "pop": 2160000,
      "elevation_m": 119
    },
    {
      "name": "León",
      "lat": 21.1236,
      "lon": -101.6806,
      "pop": 1855000,
      "elevation_m": 1809
    },
    {
      "name": "Ciudad Juárez",
      "lat": 31.6919,
      "lon": -106.4447,
      "pop": 1512000,
      "elevation_m": 1143
    },
    {
      "name": "Torreón",
      "lat": 25.5439,
      "lon": -103.419,
      "pop": 1497000,
      "elevation_m": 1123
    },
    {
      "name": "Mérida",
      "lat": 20.9674,
      "lon": -89.6243,
      "pop": 921771
    },
    {
      "name": "Tijuana",
      "lat": 32.5149,
      "lon": -117.0382,
      "pop": 1922523
    },
    {
      "name": "Querétaro",
      "lat": 20.5888,
      "lon": -100.3899,
      "pop": 1395000,
      "elevation_m": 1821
    },
    {
      "name": "Chihuahua",
      "lat": 28.6353,
      "lon": -106.0889,
      "pop": 1010000,
      "elevation_m": 1439
    },
    {
      "name": "Hermosillo",
      "lat": 29.0729,
      "lon": -110.9559,
      "pop": 936000,
      "elevation_m": 206
    },
    {
      "name": "Saltillo",
      "lat": 25.4232,
      "lon": -100.9924,
      "pop": 923000,
      "elevation_m": 1588
    }
  ],
  "portugal": [
    {
      "name": "Lisbon",
      "lat": 38.7223,
      "lon": -9.1393,
      "pop": 545000,
      "elevation_m": 15
    },
    {
      "name": "Porto",
      "lat": 41.1579,
      "lon": -8.6291,
      "pop": 231800,
      "elevation_m": 88
    },
    {
      "name": "Braga",
      "lat": 41.5518,
      "lon": -8.4229,
      "pop": 193000,
      "elevation_m": 203
    },
    {
      "name": "Coimbra",
      "lat": 40.2033,
      "lon": -8.4103,
      "pop": 143000,
      "elevation_m": 41
    },
    {
      "name": "Setúbal",
      "lat": 38.5244,
      "lon": -8.8882,
      "pop": 121000,
      "elevation_m": 10
    },
    {
      "name": "Aveiro",
      "lat": 40.6405,
      "lon": -8.6538,
      "pop": 80000,
      "elevation_m": 9
    },
    {
      "name": "Faro",
      "lat": 37.0194,
      "lon": -7.9322,
      "pop": 64000,
      "elevation_m": 18
    },
    {
      "name": "Évora",
      "lat": 38.5667,
      "lon": -7.9,
      "pop": 57000,
      "elevation_m": 270
    },
    {
      "name": "Leiria",
      "lat": 39.74362,
      "lon": -8.80705,
      "pop": 128640
    },
    {
      "name": "Viseu",
      "lat": 40.66165,
      "lon": -7.90905,
      "pop": 103502
    },
    {
      "name": "Monsanto",
      "lat": 39.46203,
      "lon": -8.7118,
      "pop": 50000
    }
  ],
  "poland": [
    {
      "name": "Warsaw",
      "lat": 52.2297,
      "lon": 21.0122,
      "pop": 1790000,
      "elevation_m": 93
    },
    {
      "name": "Kraków",
      "lat": 50.0647,
      "lon": 19.945,
      "pop": 780000,
      "elevation_m": 215
    },
    {
      "name": "Łódź",
      "lat": 51.7592,
      "lon": 19.456,
      "pop": 672000,
      "elevation_m": 211
    },
    {
      "name": "Wrocław",
      "lat": 51.1079,
      "lon": 17.0385,
      "pop": 643000,
      "elevation_m": 127
    },
    {
      "name": "Poznań",
      "lat": 52.4064,
      "lon": 16.9252,
      "pop": 534000,
      "elevation_m": 83
    },
    {
      "name": "Gdańsk",
      "lat": 54.352,
      "lon": 18.6466,
      "pop": 471000,
      "elevation_m": 9
    },
    {
      "name": "Szczecin",
      "lat": 53.4285,
      "lon": 14.5528,
      "pop": 401000,
      "elevation_m": 27
    },
    {
      "name": "Bydgoszcz",
      "lat": 53.1235,
      "lon": 18.0084,
      "pop": 348000,
      "elevation_m": 41
    },
    {
      "name": "Lublin",
      "lat": 51.2465,
      "lon": 22.5684,
      "pop": 340000,
      "elevation_m": 197
    }
  ],
  "egypt": [
    {
      "name": "Cairo",
      "lat": 30.0444,
      "lon": 31.2357,
      "pop": 9540000,
      "elevation_m": 22
    },
    {
      "name": "Alexandria",
      "lat": 31.2001,
      "lon": 29.9187,
      "pop": 5200000,
      "elevation_m": 12
    },
    {
      "name": "Port Said",
      "lat": 31.2653,
      "lon": 32.3019,
      "pop": 749000
    },
    {
      "name": "Suez",
      "lat": 29.9668,
      "lon": 32.5498,
      "pop": 728000
    },
    {
      "name": "Luxor",
      "lat": 25.6872,
      "lon": 32.6396,
      "pop": 507000,
      "elevation_m": 85
    },
    {
      "name": "Asyut",
      "lat": 27.181,
      "lon": 31.1837,
      "pop": 462000,
      "elevation_m": 59
    },
    {
      "name": "Tanta",
      "lat": 30.7865,
      "lon": 31.0004,
      "pop": 445000,
      "elevation_m": 14
    },
    {
      "name": "Faiyum",
      "lat": 29.3084,
      "lon": 30.8428,
      "pop": 404000,
      "elevation_m": 33
    },
    {
      "name": "Minya",
      "lat": 28.1099,
      "lon": 30.7503,
      "pop": 365000,
      "elevation_m": 47
    },
    {
      "name": "Aswan",
      "lat": 24.0889,
      "lon": 32.8998,
      "pop": 350000,
      "elevation_m": 105
    },
    {
      "name": "Hurghada",
      "lat": 27.2579,
      "lon": 33.8116,
      "pop": 261000
    },
    {
      "name": "Sohag",
      "lat": 26.5591,
      "lon": 31.6948,
      "pop": 250000
    }
  ],
  "belarus": [
    {
      "name": "Minsk",
      "lat": 53.9006,
      "lon": 27.559,
      "pop": 1982000,
      "elevation_m": 220
    },
    {
      "name": "Gomel",
      "lat": 52.4345,
      "lon": 30.9754,
      "pop": 536000,
      "elevation_m": 140
    },
    {
      "name": "Mogilev",
      "lat": 53.8998,
      "lon": 30.3449,
      "pop": 383000,
      "elevation_m": 181
    },
    {
      "name": "Vitebsk",
      "lat": 55.1904,
      "lon": 30.2049,
      "pop": 378000,
      "elevation_m": 147
    },
    {
      "name": "Grodno",
      "lat": 53.6884,
      "lon": 23.8258,
      "pop": 373000,
      "elevation_m": 143
    },
    {
      "name": "Brest",
      "lat": 52.0976,
      "lon": 23.6858,
      "pop": 351000,
      "elevation_m": 147
    },
    {
      "name": "Babruysk",
      "lat": 53.1384,
      "lon": 29.2214,
      "pop": 215000,
      "elevation_m": 162
    },
    {
      "name": "Baranovichi",
      "lat": 53.1327,
      "lon": 26.0139,
      "pop": 179000,
      "elevation_m": 200
    },
    {
      "name": "Borisov",
      "lat": 54.2279,
      "lon": 28.5058,
      "pop": 144000,
      "elevation_m": 175
    },
    {
      "name": "Pinsk",
      "lat": 52.1153,
      "lon": 26.1031,
      "pop": 138000,
      "elevation_m": 142
    }
  ],
  "estonia": [
    { "name": "Tallinn", "lat": 59.4370, "lon": 24.7535, "pop": 454000, "elevation_m": 37 },
    { "name": "Tartu", "lat": 58.3780, "lon": 26.7290, "pop": 98000, "elevation_m": 36 },
    { "name": "Narva", "lat": 59.3797, "lon": 28.1791, "pop": 54000, "elevation_m": 28 },
    { "name": "Pärnu", "lat": 58.3859, "lon": 24.4971, "pop": 41000, "elevation_m": 7 },
    { "name": "Kohtla-Järve", "lat": 59.3967, "lon": 27.2833, "pop": 33000, "elevation_m": 67 },
    { "name": "Viljandi", "lat": 58.3639, "lon": 25.5900, "pop": 17000, "elevation_m": 80 },
    { "name": "Rakvere", "lat": 59.3469, "lon": 26.3573, "pop": 15000, "elevation_m": 78 },
    { "name": "Kuressaare", "lat": 58.2528, "lon": 22.4853, "pop": 13000, "elevation_m": 8 },
    { "name": "Võru", "lat": 57.8444, "lon": 27.0069, "pop": 12000, "elevation_m": 92 },
    { "name": "Haapsalu", "lat": 58.9431, "lon": 23.5414, "pop": 10000, "elevation_m": 10 },
    { "name": "Paide", "lat": 58.8864, "lon": 25.5575, "pop": 8000, "elevation_m": 65 },
    { "name": "Maardu", "lat": 59.4786, "lon": 24.9803, "pop": 16000, "elevation_m": 11 }
  ],
  "slovakia": [
    {
      "name": "Bratislava",
      "lat": 48.1486,
      "lon": 17.1077,
      "pop": 437000,
      "elevation_m": 131
    },
    {
      "name": "Košice",
      "lat": 48.7164,
      "lon": 21.2611,
      "pop": 239000,
      "elevation_m": 207
    },
    {
      "name": "Prešov",
      "lat": 48.9974,
      "lon": 21.2392,
      "pop": 88000,
      "elevation_m": 259
    },
    {
      "name": "Vysoké Tatry",
      "lat": 49.1333,
      "lon": 20.2167,
      "pop": 3750
    },
    {
      "name": "Žilina",
      "lat": 49.2231,
      "lon": 18.7394,
      "pop": 81000,
      "elevation_m": 349
    },
    {
      "name": "Banská Bystrica",
      "lat": 48.7395,
      "lon": 19.1533,
      "pop": 78000,
      "elevation_m": 361
    },
    {
      "name": "Samokow",
      "lat": 42.3333,
      "lon": 23.55,
      "pop": 26000
    },
    {
      "name": "Nitra",
      "lat": 48.3069,
      "lon": 18.0864,
      "pop": 77000,
      "elevation_m": 153
    },
    {
      "name": "Trnava",
      "lat": 48.3774,
      "lon": 17.5883,
      "pop": 65000,
      "elevation_m": 153
    },
    {
      "name": "Trenčín",
      "lat": 48.8945,
      "lon": 18.0444,
      "pop": 55000,
      "elevation_m": 251
    },
    {
      "name": "Poprad",
      "lat": 49.06,
      "lon": 20.2975,
      "pop": 51000,
      "elevation_m": 670
    },
    {
      "name": "Prievidza",
      "lat": 48.77446,
      "lon": 18.6275,
      "pop": 43645
    }
  ],
  "greece": [
    {
      "name": "Athens",
      "lat": 37.9838,
      "lon": 23.7275,
      "pop": 3153000,
      "elevation_m": 153
    },
    {
      "name": "Thessaloniki",
      "lat": 40.6401,
      "lon": 22.9444,
      "pop": 812000,
      "elevation_m": 42
    },
    {
      "name": "Patras",
      "lat": 38.2466,
      "lon": 21.7346,
      "pop": 214000,
      "elevation_m": 13
    },
    {
      "name": "Heraklion",
      "lat": 35.3387,
      "lon": 25.1442,
      "pop": 174000,
      "elevation_m": 17
    },
    {
      "name": "Larissa",
      "lat": 39.639,
      "lon": 22.4191,
      "pop": 170000,
      "elevation_m": 82
    },
    {
      "name": "Volos",
      "lat": 39.3666,
      "lon": 22.9507,
      "pop": 144000,
      "elevation_m": 18
    },
    {
      "name": "Ioannina",
      "lat": 39.665,
      "lon": 20.8537,
      "pop": 112000,
      "elevation_m": 498
    },
    {
      "name": "Chania",
      "lat": 35.5138,
      "lon": 24.018,
      "pop": 108000,
      "elevation_m": 10
    },
    {
      "name": "Chalcis",
      "lat": 38.4625,
      "lon": 23.6,
      "pop": 102000,
      "elevation_m": 21
    },
    {
      "name": "Kavala",
      "lat": 40.9397,
      "lon": 24.4014,
      "pop": 70000,
      "elevation_m": 88
    }
  ],
  "uk": [
    {
      "name": "London",
      "lat": 51.5074,
      "lon": -0.1278,
      "pop": 8982000,
      "elevation_m": 14
    },
    {
      "name": "Birmingham",
      "lat": 52.4862,
      "lon": -1.8904,
      "pop": 1141000,
      "elevation_m": 122
    },
    {
      "name": "Glasgow",
      "lat": 55.8642,
      "lon": -4.2518,
      "pop": 633000,
      "elevation_m": 34
    },
    {
      "name": "Liverpool",
      "lat": 53.4084,
      "lon": -2.9916,
      "pop": 496000,
      "elevation_m": 29
    },
    {
      "name": "Bristol",
      "lat": 51.4545,
      "lon": -2.5879,
      "pop": 463000,
      "elevation_m": 11
    },
    {
      "name": "Manchester",
      "lat": 53.4808,
      "lon": -2.2426,
      "pop": 553000,
      "elevation_m": 52
    },
    {
      "name": "Sheffield",
      "lat": 53.3811,
      "lon": -1.4701,
      "pop": 556000,
      "elevation_m": 87
    },
    {
      "name": "Edinburgh",
      "lat": 55.9533,
      "lon": -3.1883,
      "pop": 525000,
      "elevation_m": 69
    },
    {
      "name": "Leeds",
      "lat": 53.8008,
      "lon": -1.5491,
      "pop": 503000,
      "elevation_m": 49
    },
    {
      "name": "Cardiff",
      "lat": 51.4816,
      "lon": -3.1791,
      "pop": 362000,
      "elevation_m": 14
    }
  ],
  "scotland": [
    {
      "name": "Glasgow",
      "lat": 55.8642,
      "lon": -4.2518,
      "pop": 633000,
      "elevation_m": 34
    },
    {
      "name": "Edinburgh",
      "lat": 55.9533,
      "lon": -3.1883,
      "pop": 525000,
      "elevation_m": 69
    },
    {
      "name": "Aberdeen",
      "lat": 57.1497,
      "lon": -2.0943,
      "pop": 229000,
      "elevation_m": 30
    },
    {
      "name": "Dundee",
      "lat": 56.462,
      "lon": -2.9707,
      "pop": 149000,
      "elevation_m": 20
    },
    {
      "name": "Inverness",
      "lat": 57.4778,
      "lon": -4.2247,
      "pop": 63000,
      "elevation_m": 10
    },
    {
      "name": "Perth",
      "lat": 56.3952,
      "lon": -3.4372,
      "pop": 47000,
      "elevation_m": 17
    },
    {
      "name": "Stirling",
      "lat": 56.1166,
      "lon": -3.9369,
      "pop": 37000,
      "elevation_m": 30
    },
    {
      "name": "Kilmarnock",
      "lat": 55.6119,
      "lon": -4.4957,
      "pop": 46000,
      "elevation_m": 43
    },
    {
      "name": "Paisley",
      "lat": 55.8456,
      "lon": -4.4239,
      "pop": 77000,
      "elevation_m": 15
    },
    {
      "name": "Fort William",
      "lat": 56.8198,
      "lon": -5.1052,
      "pop": 10000,
      "elevation_m": 4
    }
  ],
  "wales": [
    {
      "name": "Cardiff",
      "lat": 51.4816,
      "lon": -3.1791,
      "pop": 362000,
      "elevation_m": 14
    },
    {
      "name": "Swansea",
      "lat": 51.6214,
      "lon": -3.9436,
      "pop": 246000,
      "elevation_m": 9
    },
    {
      "name": "Newport",
      "lat": 51.5842,
      "lon": -2.9977,
      "pop": 155000,
      "elevation_m": 18
    },
    {
      "name": "Wrexham",
      "lat": 53.0468,
      "lon": -2.9925,
      "pop": 65000,
      "elevation_m": 48
    },
    {
      "name": "Bangor",
      "lat": 53.2274,
      "lon": -4.1293,
      "pop": 19000,
      "elevation_m": 15
    },
    {
      "name": "Aberystwyth",
      "lat": 52.4153,
      "lon": -4.0829,
      "pop": 16000,
      "elevation_m": 5
    },
    {
      "name": "Llanelli",
      "lat": 51.684,
      "lon": -4.1629,
      "pop": 49000,
      "elevation_m": 9
    },
    {
      "name": "Merthyr Tydfil",
      "lat": 51.7455,
      "lon": -3.3791,
      "pop": 44000,
      "elevation_m": 198
    },
    {
      "name": "Carmarthen",
      "lat": 51.8576,
      "lon": -4.3165,
      "pop": 16000,
      "elevation_m": 30
    },
    {
      "name": "Caernarfon",
      "lat": 53.1394,
      "lon": -4.2756,
      "pop": 10000,
      "elevation_m": 8
    }
  ],
  "northern_ireland": [
    {
      "name": "Belfast",
      "lat": 54.5973,
      "lon": -5.9301,
      "pop": 343000,
      "elevation_m": 11
    },
    {
      "name": "Derry",
      "lat": 54.9966,
      "lon": -7.3086,
      "pop": 85000,
      "elevation_m": 5
    },
    {
      "name": "Lisburn",
      "lat": 54.5162,
      "lon": -6.058,
      "pop": 75000,
      "elevation_m": 55
    },
    {
      "name": "Newry",
      "lat": 54.1751,
      "lon": -6.3402,
      "pop": 27000,
      "elevation_m": 30
    },
    {
      "name": "Bangor",
      "lat": 54.6593,
      "lon": -5.6688,
      "pop": 61000,
      "elevation_m": 6
    },
    {
      "name": "Craigavon",
      "lat": 54.449,
      "lon": -6.3876,
      "pop": 65000,
      "elevation_m": 45
    },
    {
      "name": "Ballymena",
      "lat": 54.8639,
      "lon": -6.2765,
      "pop": 30000,
      "elevation_m": 68
    },
    {
      "name": "Newtownabbey",
      "lat": 54.6599,
      "lon": -5.9152,
      "pop": 65000,
      "elevation_m": 30
    },
    {
      "name": "Omagh",
      "lat": 54.5972,
      "lon": -7.2997,
      "pop": 21000,
      "elevation_m": 76
    },
    {
      "name": "Enniskillen",
      "lat": 54.3444,
      "lon": -7.6397,
      "pop": 14000,
      "elevation_m": 55
    }
  ],
  "ukraine": [
    {
      "name": "Kyiv",
      "lat": 50.4501,
      "lon": 30.5234,
      "pop": 2952000,
      "elevation_m": 168
    },
    {
      "name": "Kharkiv",
      "lat": 49.9935,
      "lon": 36.2304,
      "pop": 1431000,
      "elevation_m": 125
    },
    {
      "name": "Odesa",
      "lat": 46.4825,
      "lon": 30.7233,
      "pop": 1015000,
      "elevation_m": 61
    },
    {
      "name": "Dnipro",
      "lat": 48.4647,
      "lon": 35.0462,
      "pop": 968000,
      "elevation_m": 60
    },
    {
      "name": "Donetsk",
      "lat": 48.0159,
      "lon": 37.8029,
      "pop": 929000,
      "elevation_m": 212
    },
    {
      "name": "Zaporizhzhia",
      "lat": 47.8388,
      "lon": 35.1396,
      "pop": 722000,
      "elevation_m": 84
    },
    {
      "name": "Lviv",
      "lat": 49.8397,
      "lon": 24.0297,
      "pop": 721000,
      "elevation_m": 280
    },
    {
      "name": "Kryvyi Rih",
      "lat": 47.9105,
      "lon": 33.3918,
      "pop": 612000,
      "elevation_m": 96
    },
    {
      "name": "Mykolaiv",
      "lat": 46.975,
      "lon": 31.9946,
      "pop": 480000,
      "elevation_m": 22
    },
    {
      "name": "Mariupol",
      "lat": 47.0958,
      "lon": 37.5433,
      "pop": 431000,
      "elevation_m": 67
    }
  ],
  "brunei": [
    {
      "name": "Bandar Seri Begawan",
      "lat": 4.8908,
      "lon": 114.9422,
      "pop": 100700,
      "elevation_m": 12
    },
    {
      "name": "Kuala Belait",
      "lat": 4.5833,
      "lon": 114.1833,
      "pop": 31100,
      "elevation_m": 2
    },
    {
      "name": "Seria",
      "lat": 4.6,
      "lon": 114.3333,
      "pop": 30100,
      "elevation_m": 2
    },
    {
      "name": "Tutong",
      "lat": 4.8,
      "lon": 114.65,
      "pop": 19100,
      "elevation_m": 8
    },
    {
      "name": "Bangar",
      "lat": 4.7086,
      "lon": 115.0717,
      "pop": 4000,
      "elevation_m": 15
    },
    {
      "name": "Muara",
      "lat": 5.0268,
      "lon": 115.0693,
      "pop": 2100,
      "elevation_m": 3
    },
    {
      "name": "Sengkurong",
      "lat": 4.8833,
      "lon": 114.8333,
      "pop": 41000,
      "elevation_m": 10
    },
    {
      "name": "Kuala Lurah",
      "lat": 4.7333,
      "lon": 114.8167,
      "pop": 1000,
      "elevation_m": 14
    },
    {
      "name": "Lamunin",
      "lat": 4.6833,
      "lon": 114.75,
      "pop": 2500,
      "elevation_m": 18
    },
    {
      "name": "Lumut",
      "lat": 4.644,
      "lon": 114.448,
      "pop": 16800,
      "elevation_m": 5
    }
  ],
  "bulgaria": [
    {
      "name": "Sofia",
      "lat": 42.6977,
      "lon": 23.3219,
      "pop": 1307000,
      "elevation_m": 560
    },
    {
      "name": "Plovdiv",
      "lat": 42.1354,
      "lon": 24.7453,
      "pop": 346000,
      "elevation_m": 163
    },
    {
      "name": "Varna",
      "lat": 43.2141,
      "lon": 27.9147,
      "pop": 336000,
      "elevation_m": 50
    },
    {
      "name": "Burgas",
      "lat": 42.5048,
      "lon": 27.4626,
      "pop": 203000,
      "elevation_m": 15
    },
    {
      "name": "Samokow",
      "lat": 42.3333,
      "lon": 23.55,
      "pop": 26000
    },
    {
      "name": "Bansko",
      "lat": 41.8333,
      "lon": 23.4833,
      "pop": 9100,
      "elevation_m": 927
    },
    {
      "name": "Montana",
      "lat": 43.4125,
      "lon": 23.225,
      "pop": 37500,
      "elevation_m": 160
    },
    {
      "name": "Ruse",
      "lat": 43.8486,
      "lon": 25.9549,
      "pop": 144000,
      "elevation_m": 39
    },
    {
      "name": "Stara Zagora",
      "lat": 42.4258,
      "lon": 25.6345,
      "pop": 138000,
      "elevation_m": 204
    },
    {
      "name": "Pleven",
      "lat": 43.417,
      "lon": 24.6067,
      "pop": 101000,
      "elevation_m": 100
    },
    {
      "name": "Dobrich",
      "lat": 43.5726,
      "lon": 27.8273,
      "pop": 86000,
      "elevation_m": 212
    },
    {
      "name": "Sliven",
      "lat": 42.6812,
      "lon": 26.3287,
      "pop": 84000,
      "elevation_m": 262
    },
    {
      "name": "Shumen",
      "lat": 43.2714,
      "lon": 26.9229,
      "pop": 80000,
      "elevation_m": 230
    }
  ],
  "serbia": [
    {
      "name": "Belgrade",
      "lat": 44.7866,
      "lon": 20.4489,
      "pop": 1389000,
      "elevation_m": 116
    },
    {
      "name": "Novi Sad",
      "lat": 45.2671,
      "lon": 19.8335,
      "pop": 289000,
      "elevation_m": 77
    },
    {
      "name": "Niš",
      "lat": 43.3209,
      "lon": 21.8958,
      "pop": 183000,
      "elevation_m": 199
    },
    {
      "name": "Kragujevac",
      "lat": 44.0128,
      "lon": 20.9114,
      "pop": 150000,
      "elevation_m": 194
    },
    {
      "name": "Subotica",
      "lat": 46.1003,
      "lon": 19.6658,
      "pop": 97000,
      "elevation_m": 123
    },
    {
      "name": "Zrenjanin",
      "lat": 45.3816,
      "lon": 20.3788,
      "pop": 76000,
      "elevation_m": 80
    },
    {
      "name": "Čačak",
      "lat": 43.8914,
      "lon": 20.3497,
      "pop": 73000,
      "elevation_m": 245
    },
    {
      "name": "Novi Pazar",
      "lat": 43.1367,
      "lon": 20.5122,
      "pop": 66000,
      "elevation_m": 499
    },
    {
      "name": "Kraljevo",
      "lat": 43.7257,
      "lon": 20.6897,
      "pop": 64000,
      "elevation_m": 209
    },
    {
      "name": "Leskovac",
      "lat": 42.99806,
      "lon": 21.94611,
      "pop": 94758
    }
  ],
  "albania": [
    {
      "name": "Tirana",
      "lat": 41.3275,
      "lon": 19.8187,
      "pop": 520000,
      "elevation_m": 104
    },
    {
      "name": "Durrës",
      "lat": 41.3246,
      "lon": 19.4565,
      "pop": 175000,
      "elevation_m": 3
    },
    {
      "name": "Vlorë",
      "lat": 40.4636,
      "lon": 19.4905,
      "pop": 130000,
      "elevation_m": 8
    },
    {
      "name": "Përmet",
      "lat": 40.2333,
      "lon": 20.3333,
      "pop": 5000,
      "elevation_m": 246
    },
    {
      "name": "Elbasan",
      "lat": 41.1125,
      "lon": 20.0822,
      "pop": 100000,
      "elevation_m": 132
    },
    {
      "name": "Shkodër",
      "lat": 42.0693,
      "lon": 19.5126,
      "pop": 89000,
      "elevation_m": 16
    },
    {
      "name": "Kukës",
      "lat": 42.0767,
      "lon": 20.4217,
      "pop": 16719,
      "elevation_m": 340
    },
    {
      "name": "Korçë",
      "lat": 40.6186,
      "lon": 20.7808,
      "pop": 75000,
      "elevation_m": 865
    },
    {
      "name": "Berat",
      "lat": 40.7058,
      "lon": 19.9522,
      "pop": 46000,
      "elevation_m": 69
    },
    {
      "name": "Lushnjë",
      "lat": 40.9419,
      "lon": 19.705,
      "pop": 42000,
      "elevation_m": 25
    },
    {
      "name": "Pogradec",
      "lat": 40.9025,
      "lon": 20.6525,
      "pop": 38000,
      "elevation_m": 703
    },
    {
      "name": "Sarandë",
      "lat": 39.8756,
      "lon": 20.0053,
      "pop": 30000,
      "elevation_m": 5
    },
    {
      "name": "Gjirokastër",
      "lat": 40.0758,
      "lon": 20.1389,
      "pop": 25000,
      "elevation_m": 300
    },
    {
      "name": "Fier",
      "lat": 40.7239,
      "lon": 19.5561,
      "pop": 85000,
      "elevation_m": 20
    },
    {
      "name": "Bajram Curri",
      "lat": 42.3578,
      "lon": 20.0758,
      "pop": 5300,
      "elevation_m": 360
    },
    {
      "name": "Peshkopi",
      "lat": 41.6833,
      "lon": 20.4289,
      "pop": 13200,
      "elevation_m": 651
    },
    {
      "name": "Tepelenë",
      "lat": 40.2958,
      "lon": 20.0189,
      "pop": 4300,
      "elevation_m": 190
    },
    {
      "name": "Pukë",
      "lat": 42.0444,
      "lon": 19.8936,
      "pop": 3600,
      "elevation_m": 838
    },
    {
      "name": "Përmet",
      "lat": 40.2333,
      "lon": 20.3333,
      "pop": 5000,
      "elevation_m": 246
    }
  ],
  "north macedonia": [
    {
      "name": "Skopje",
      "lat": 41.9981,
      "lon": 21.4254,
      "pop": 544000,
      "elevation_m": 243
    },
    {
      "name": "Kumanovo",
      "lat": 42.1322,
      "lon": 21.7144,
      "pop": 71000,
      "elevation_m": 342
    },
    {
      "name": "Bitola",
      "lat": 41.0297,
      "lon": 21.3292,
      "pop": 75000,
      "elevation_m": 624
    },
    {
      "name": "Kicevo",
      "lat": 41.5138,
      "lon": 20.9531,
      "pop": 27000
    },
    {
      "name": "Prilep",
      "lat": 41.3449,
      "lon": 21.5528,
      "pop": 66000,
      "elevation_m": 654
    },
    {
      "name": "Tetovo",
      "lat": 42.0069,
      "lon": 20.9715,
      "pop": 53000,
      "elevation_m": 471
    },
    {
      "name": "Veles",
      "lat": 41.7153,
      "lon": 21.7756,
      "pop": 43000,
      "elevation_m": 206
    },
    {
      "name": "Štip",
      "lat": 41.7358,
      "lon": 22.1914,
      "pop": 43000,
      "elevation_m": 285
    },
    {
      "name": "Ohrid",
      "lat": 41.1231,
      "lon": 20.8016,
      "pop": 42000,
      "elevation_m": 702
    },
    {
      "name": "Strumica",
      "lat": 41.4378,
      "lon": 22.6427,
      "pop": 35000,
      "elevation_m": 230
    }
  ],
  "montenegro": [
    {
      "name": "Podgorica",
      "lat": 42.4304,
      "lon": 19.2594,
      "pop": 187000,
      "elevation_m": 61
    },
    {
      "name": "Nikšić",
      "lat": 42.7731,
      "lon": 18.9444,
      "pop": 56000,
      "elevation_m": 632
    },
    {
      "name": "Budva",
      "lat": 42.2914,
      "lon": 18.84,
      "pop": 19000,
      "elevation_m": 21
    },
    {
      "name": "Bijelo Polje",
      "lat": 43.0386,
      "lon": 19.7489,
      "pop": 15000,
      "elevation_m": 653
    },
    {
      "name": "Bar",
      "lat": 42.0936,
      "lon": 19.1006,
      "pop": 14000,
      "elevation_m": 4
    },
    {
      "name": "Herceg Novi",
      "lat": 42.4531,
      "lon": 18.5375,
      "pop": 13000,
      "elevation_m": 90
    },
    {
      "name": "Pljevlja",
      "lat": 43.3567,
      "lon": 19.35843,
      "pop": 19489
    }
  ],
  "bosnia": [
    {
      "name": "Sarajevo",
      "lat": 43.8563,
      "lon": 18.4131,
      "pop": 275000,
      "elevation_m": 550
    },
    {
      "name": "Banja Luka",
      "lat": 44.7722,
      "lon": 17.191,
      "pop": 185000,
      "elevation_m": 168
    },
    {
      "name": "Tuzla",
      "lat": 44.5384,
      "lon": 18.6736,
      "pop": 110000,
      "elevation_m": 234
    },
    {
      "name": "Zenica",
      "lat": 44.2033,
      "lon": 17.9078,
      "pop": 110000,
      "elevation_m": 319
    },
    {
      "name": "Mostar",
      "lat": 43.3438,
      "lon": 17.8078,
      "pop": 75000,
      "elevation_m": 64
    },
    {
      "name": "Bijeljina",
      "lat": 44.7564,
      "lon": 19.2142,
      "pop": 60000,
      "elevation_m": 96
    },
    {
      "name": "Brčko",
      "lat": 44.8726,
      "lon": 18.8098,
      "pop": 44000,
      "elevation_m": 97
    },
    {
      "name": "Prijedor",
      "lat": 44.98,
      "lon": 16.7139,
      "pop": 36000,
      "elevation_m": 143
    },
    {
      "name": "Doboj",
      "lat": 44.7314,
      "lon": 18.0853,
      "pop": 30000
    },
    {
      "name": "Trebinje",
      "lat": 42.7117,
      "lon": 18.3436,
      "pop": 28000,
      "elevation_m": 281
    }
  ],
  "lithuania": [
    {
      "name": "Vilnius",
      "lat": 54.6872,
      "lon": 25.2797,
      "pop": 580000,
      "elevation_m": 124
    },
    {
      "name": "Kaunas",
      "lat": 54.8985,
      "lon": 23.9036,
      "pop": 289000,
      "elevation_m": 40
    },
    {
      "name": "Klaipėda",
      "lat": 55.7033,
      "lon": 21.1443,
      "pop": 149000,
      "elevation_m": 10
    },
    {
      "name": "Šiauliai",
      "lat": 55.9349,
      "lon": 23.3137,
      "pop": 101000,
      "elevation_m": 131
    },
    {
      "name": "Panevėžys",
      "lat": 55.7348,
      "lon": 24.3575,
      "pop": 87000,
      "elevation_m": 57
    },
    {
      "name": "Alytus",
      "lat": 54.3963,
      "lon": 24.0459,
      "pop": 50000,
      "elevation_m": 94
    },
    {
      "name": "Marijampolė",
      "lat": 54.5594,
      "lon": 23.35,
      "pop": 38000,
      "elevation_m": 74
    },
    {
      "name": "Mažeikiai",
      "lat": 56.3089,
      "lon": 22.3317,
      "pop": 36000,
      "elevation_m": 70
    },
    {
      "name": "Jonava",
      "lat": 55.0722,
      "lon": 24.2814,
      "pop": 29000,
      "elevation_m": 48
    },
    {
      "name": "Utena",
      "lat": 55.4981,
      "lon": 25.6028,
      "pop": 26000,
      "elevation_m": 114
    }
  ],
  "latvia": [
    {
      "name": "Riga",
      "lat": 56.9496,
      "lon": 24.1052,
      "pop": 614000,
      "elevation_m": 8
    },
    {
      "name": "Daugavpils",
      "lat": 55.8747,
      "lon": 26.5356,
      "pop": 82000,
      "elevation_m": 109
    },
    {
      "name": "Liepāja",
      "lat": 56.5047,
      "lon": 21.0108,
      "pop": 68000,
      "elevation_m": 9
    },
    {
      "name": "Jelgava",
      "lat": 56.6511,
      "lon": 23.7133,
      "pop": 56000,
      "elevation_m": 7
    },
    {
      "name": "Ventspils",
      "lat": 57.3894,
      "lon": 21.5606,
      "pop": 34000,
      "elevation_m": 9
    },
    {
      "name": "Rēzekne",
      "lat": 56.5069,
      "lon": 27.3306,
      "pop": 28000,
      "elevation_m": 154
    },
    {
      "name": "Valmiera",
      "lat": 57.5408,
      "lon": 25.4264,
      "pop": 23000,
      "elevation_m": 44
    },
    {
      "name": "Jēkabpils",
      "lat": 56.4997,
      "lon": 25.8781,
      "pop": 22000,
      "elevation_m": 77
    },
    {
      "name": "Ogre",
      "lat": 56.8167,
      "lon": 24.6047,
      "pop": 22000,
      "elevation_m": 28
    }
  ],
  "liechtenstein": [
    { "name": "Ruggell", "lat": 47.2385, "lon": 9.5255, "pop": 2322, "elevation_m": 433 },
    { "name": "Schaan", "lat": 47.1647, "lon": 9.5101, "pop": 6039, "elevation_m": 450 },
    { "name": "Vaduz", "lat": 47.1410, "lon": 9.5215, "pop": 5696, "elevation_m": 455 },
    { "name": "Triesenberg", "lat": 47.1181, "lon": 9.5442, "pop": 2638, "elevation_m": 884 },
    { "name": "Malbun", "lat": 47.1028, "lon": 9.6083, "pop": 100, "elevation_m": 1600 }
  ],
  "moldova": [
    {
      "name": "Chișinău",
      "lat": 47.0105,
      "lon": 28.8638,
      "pop": 640000,
      "elevation_m": 80
    },
    {
      "name": "Tiraspol",
      "lat": 46.8403,
      "lon": 29.6433,
      "pop": 129000,
      "elevation_m": 35
    },
    {
      "name": "Bălți",
      "lat": 47.7617,
      "lon": 27.9292,
      "pop": 97000,
      "elevation_m": 111
    },
    {
      "name": "Rîbnița",
      "lat": 47.7653,
      "lon": 29.0089,
      "pop": 47000,
      "elevation_m": 97
    },
    {
      "name": "Cahul",
      "lat": 45.9047,
      "lon": 28.1944,
      "pop": 34000,
      "elevation_m": 49
    },
    {
      "name": "Ungheni",
      "lat": 47.2103,
      "lon": 27.7997,
      "pop": 32000,
      "elevation_m": 64
    },
    {
      "name": "Soroca",
      "lat": 48.1667,
      "lon": 28.2833,
      "pop": 22000,
      "elevation_m": 124
    },
    {
      "name": "Orhei",
      "lat": 47.3833,
      "lon": 28.8167,
      "pop": 21000,
      "elevation_m": 34
    },
    {
      "name": "Edineț",
      "lat": 48.1722,
      "lon": 27.3053,
      "pop": 17000,
      "elevation_m": 223
    },
    {
      "name": "Comrat",
      "lat": 46.29488,
      "lon": 28.65713,
      "pop": 22911
    }
  ],
  "iceland": [
    {
      "name": "Reykjavik",
      "lat": 64.1466,
      "lon": -21.9426,
      "pop": 131000,
      "elevation_m": 15
    },
    {
      "name": "Akureyri",
      "lat": 65.6835,
      "lon": -18.0878,
      "pop": 19000,
      "elevation_m": 2
    },
    {
      "name": "Reykjanesbær",
      "lat": 63.9965,
      "lon": -22.5515,
      "pop": 19000,
      "elevation_m": 12
    },
    {
      "name": "Selfoss",
      "lat": 63.9331,
      "lon": -21.0003,
      "pop": 8000,
      "elevation_m": 17
    },
    {
      "name": "Ísafjörður",
      "lat": 66.0748,
      "lon": -23.135,
      "pop": 3000,
      "elevation_m": 25
    }
  ],
  "luxembourg": [
    {
      "name": "Luxembourg City",
      "lat": 49.6117,
      "lon": 6.13,
      "pop": 124000,
      "elevation_m": 316
    },
    {
      "name": "Wiltz",
      "lat": 49.9686,
      "lon": 5.9331,
      "pop": 7000,
      "elevation_m": 318
    },
    {
      "name": "Echternach",
      "lat": 49.8114,
      "lon": 6.4214,
      "pop": 6000,
      "elevation_m": 166
    }
  ],
  "malta": [
    {
      "name": "Valletta",
      "lat": 35.8989,
      "lon": 14.5146,
      "pop": 6000,
      "elevation_m": 54
    },
    {
      "name": "Birkirkara",
      "lat": 35.8964,
      "lon": 14.4631,
      "pop": 25000,
      "elevation_m": 34
    },
    {
      "name": "Mosta",
      "lat": 35.9094,
      "lon": 14.4256,
      "pop": 22000,
      "elevation_m": 71
    },
    {
      "name": "Qormi",
      "lat": 35.8764,
      "lon": 14.47,
      "pop": 18000,
      "elevation_m": 39
    },
    {
      "name": "Żabbar",
      "lat": 35.8756,
      "lon": 14.5372,
      "pop": 17000,
      "elevation_m": 44
    },
    {
      "name": "Sliema",
      "lat": 35.9128,
      "lon": 14.5025,
      "pop": 16000,
      "elevation_m": 29
    },
    {
      "name": "San Ġwann",
      "lat": 35.9067,
      "lon": 14.4756,
      "pop": 13000,
      "elevation_m": 86
    },
    {
      "name": "Naxxar",
      "lat": 35.9181,
      "lon": 14.4442,
      "pop": 14000,
      "elevation_m": 125
    },
    {
      "name": "Żejtun",
      "lat": 35.8564,
      "lon": 14.5333,
      "pop": 12000,
      "elevation_m": 49
    },
    {
      "name": "Rabat",
      "lat": 35.8819,
      "lon": 14.3989,
      "pop": 11000,
      "elevation_m": 200
    }
  ],
  "cyprus": [
    {
      "name": "Nicosia",
      "lat": 35.1856,
      "lon": 33.3823,
      "pop": 326000,
      "elevation_m": 170
    },
    {
      "name": "Limassol",
      "lat": 34.7071,
      "lon": 33.0226,
      "pop": 235000,
      "elevation_m": 82
    },
    {
      "name": "Larnaca",
      "lat": 34.9229,
      "lon": 33.6233,
      "pop": 85000,
      "elevation_m": 9
    },
    {
      "name": "Paphos",
      "lat": 34.7754,
      "lon": 32.4244,
      "pop": 63000,
      "elevation_m": 74
    },
    {
      "name": "Famagusta",
      "lat": 35.1174,
      "lon": 33.9416,
      "pop": 40000,
      "elevation_m": 15
    },
    {
      "name": "Morphou",
      "lat": 35.2,
      "lon": 32.9933,
      "pop": 18000,
      "elevation_m": 45
    }
  ],
  "kosovo": [
    {
      "name": "Pristina",
      "lat": 42.6629,
      "lon": 21.1655,
      "pop": 210000,
      "elevation_m": 603
    },
    {
      "name": "Prizren",
      "lat": 42.2139,
      "lon": 20.7397,
      "pop": 86000,
      "elevation_m": 418
    },
    {
      "name": "Mitrovica",
      "lat": 42.8833,
      "lon": 20.8667,
      "pop": 72000,
      "elevation_m": 512
    },
    {
      "name": "Ferizaj",
      "lat": 42.37,
      "lon": 21.1553,
      "pop": 59000,
      "elevation_m": 582
    },
    {
      "name": "Peja",
      "lat": 42.6592,
      "lon": 20.2886,
      "pop": 46000,
      "elevation_m": 517
    },
    {
      "name": "Gjakova",
      "lat": 42.3803,
      "lon": 20.4308,
      "pop": 40000,
      "elevation_m": 356
    },
    {
      "name": "Llazicë",
      "lat": 42.55528,
      "lon": 20.76333,
      "pop": 19863
    }
  ],
  "nepal": [
    {
      "name": "Kathmandu",
      "lat": 27.7172,
      "lon": 85.324,
      "pop": 1442271,
      "elevation_m": 1308
    },
    {
      "name": "Pokhara",
      "lat": 28.2096,
      "lon": 83.9856,
      "pop": 518452,
      "elevation_m": 850
    },
    {
      "name": "Bharatpur",
      "lat": 27.6833,
      "lon": 84.4333,
      "pop": 280502,
      "elevation_m": 213
    },
    {
      "name": "Mt. Everest Base Camp",
      "lat": 28.0026,
      "lon": 86.8528,
      "pop": 0
    },
    {
      "name": "Biratnagar",
      "lat": 26.4525,
      "lon": 87.2718,
      "pop": 242548,
      "elevation_m": 71
    },
    {
      "name": "Birgunj",
      "lat": 27.0104,
      "lon": 84.8779,
      "pop": 204667,
      "elevation_m": 90
    },
    {
      "name": "Dharan",
      "lat": 26.8065,
      "lon": 87.2846,
      "pop": 183565,
      "elevation_m": 345
    },
    {
      "name": "Janakpur",
      "lat": 26.7288,
      "lon": 85.9263,
      "pop": 147718,
      "elevation_m": 84
    },
    {
      "name": "Dhangaḍhi̇̄",
      "lat": 28.70159,
      "lon": 80.58991,
      "pop": 204788
    }
  ],
  "peru": [
    {
      "name": "Lima",
      "lat": -12.0464,
      "lon": -77.0428,
      "pop": 10151200,
      "elevation_m": 154
    },
    {
      "name": "Arequipa",
      "lat": -16.409,
      "lon": -71.5375,
      "pop": 1008290,
      "elevation_m": 2322
    },
    {
      "name": "Trujillo",
      "lat": -8.1116,
      "lon": -79.0288,
      "pop": 919899,
      "elevation_m": 38
    },
    {
      "name": "Chiclayo",
      "lat": -6.7714,
      "lon": -79.8409,
      "pop": 600440,
      "elevation_m": 34
    },
    {
      "name": "Cusco",
      "lat": -13.532,
      "lon": -71.9675,
      "pop": 428450,
      "elevation_m": 3338
    },
    {
      "name": "Piura",
      "lat": -5.1945,
      "lon": -80.6328,
      "pop": 473025,
      "elevation_m": 34
    },
    {
      "name": "Iquitos",
      "lat": -3.7491,
      "lon": -73.2538,
      "pop": 437376,
      "elevation_m": 94
    },
    {
      "name": "Pucallpa",
      "lat": -8.3791,
      "lon": -74.5539,
      "pop": 310750,
      "elevation_m": 157
    },
    {
      "name": "Tacna",
      "lat": -18.0146,
      "lon": -70.2536,
      "pop": 293689,
      "elevation_m": 555
    },
    {
      "name": "La Rinconada",
      "lat": -14.63,
      "lon": -69.45,
      "pop": 30000
    }
  ],
  "chile": [
      { "name": "Putre", "lat": -18.1964, "lon": -69.5594, "elevation_m": 3500 },
      { "name": "Iquique", "lat": -20.2141, "lon": -70.1524, "elevation_m": 11 },
      { "name": "Calama", "lat": -22.4544, "lon": -68.9294, "elevation_m": 2260 },
      { "name": "Antofagasta", "lat": -23.6509, "lon": -70.3975, "elevation_m": 15 },
      { "name": "Copiapó", "lat": -27.3671, "lon": -70.3322, "elevation_m": 383 },
      { "name": "La Serena", "lat": -29.9027, "lon": -71.2519, "elevation_m": 26 },
      { "name": "Valparaíso", "lat": -33.0472, "lon": -71.6127, "elevation_m": 9 },
      { "name": "Santiago", "lat": -33.45, "lon": -70.67, "elevation_m": 521 },
      { "name": "Puente Alto", "lat": -33.6117, "lon": -70.5756, "elevation_m": 697 },
      { "name": "Rancagua", "lat": -34.1708, "lon": -70.7444, "elevation_m": 372 },
      { "name": "Putre", "lat": -18.1964, "lon": -69.5594, "elevation_m": 3500 },
      { "name": "Iquique", "lat": -20.2141, "lon": -70.1524, "elevation_m": 11 },
      { "name": "Calama", "lat": -22.4544, "lon": -68.9294, "elevation_m": 2260 },
      { "name": "Antofagasta", "lat": -23.6509, "lon": -70.3975, "elevation_m": 15 },
      { "name": "Copiapó", "lat": -27.3671, "lon": -70.3322, "elevation_m": 383 },
      { "name": "La Serena", "lat": -29.9027, "lon": -71.2519, "elevation_m": 26 },
      { "name": "Valparaíso", "lat": -33.0472, "lon": -71.6127, "elevation_m": 9 },